{
  "type" : "FeatureCollection",
  "features" : [{"type":"Feature","id":1,"geometry":{"type":"Point","coordinates":[-149.89485199999996,61.216312900000048]},"properties":{"OBJECTID":1,"NAME":"Anchorage","state":"AK","new_archetype":"Risk","latitude":61.216312899999998,"longitude":-149.89485199999999}},{"type":"Feature","id":2,"geometry":{"type":"Point","coordinates":[-85.480782499999975,32.609856600000057]},"properties":{"OBJECTID":2,"NAME":"Auburn","state":"AL","new_archetype":"Destination","latitude":32.609856600000001,"longitude":-85.480782500000004}},{"type":"Feature","id":3,"geometry":{"type":"Point","coordinates":[-86.802432599999975,33.520682400000055]},"properties":{"OBJECTID":3,"NAME":"Birmingham","state":"AL","new_archetype":"Opportunity","latitude":33.520682399999998,"longitude":-86.802432600000003}},{"type":"Feature","id":4,"geometry":{"type":"Point","coordinates":[-86.983816499999989,34.606020300000068]},"properties":{"OBJECTID":4,"NAME":"Decatur","state":"AL","new_archetype":"Origin","latitude":34.606020299999997,"longitude":-86.983816500000003}},{"type":"Feature","id":5,"geometry":{"type":"Point","coordinates":[-86.751142699999946,34.692872600000044]},"properties":{"OBJECTID":5,"NAME":"Madison","state":"AL","new_archetype":"Destination","latitude":34.692872600000001,"longitude":-86.751142700000003}},{"type":"Feature","id":6,"geometry":{"type":"Point","coordinates":[-88.084892899999943,30.686733900000036]},"properties":{"OBJECTID":6,"NAME":"Mobile","state":"AL","new_archetype":"Risk","latitude":30.6867339,"longitude":-88.0848929}},{"type":"Feature","id":7,"geometry":{"type":"Point","coordinates":[-86.300648499999966,32.366965600000071]},"properties":{"OBJECTID":7,"NAME":"Montgomery","state":"AL","new_archetype":"Opportunity","latitude":32.3669656,"longitude":-86.300648499999994}},{"type":"Feature","id":8,"geometry":{"type":"Point","coordinates":[-87.567525799999942,33.209561400000041]},"properties":{"OBJECTID":8,"NAME":"Tuscaloosa","state":"AL","new_archetype":"Destination","latitude":33.209561399999998,"longitude":-87.567525799999999}},{"type":"Feature","id":9,"geometry":{"type":"Point","coordinates":[-85.393390599999975,31.223743400000046]},"properties":{"OBJECTID":9,"NAME":"Dothan","state":"AL","new_archetype":"Risk","latitude":31.2237434,"longitude":-85.393390600000004}},{"type":"Feature","id":10,"geometry":{"type":"Point","coordinates":[-86.78985769999997,33.406082500000025]},"properties":{"OBJECTID":10,"NAME":"Hoover","state":"AL","new_archetype":"Risk","latitude":33.406082499999997,"longitude":-86.789857699999999}},{"type":"Feature","id":11,"geometry":{"type":"Point","coordinates":[-86.585901099999944,34.729847000000063]},"properties":{"OBJECTID":11,"NAME":"Huntsville","state":"AL","new_archetype":"Risk","latitude":34.729846999999999,"longitude":-86.585901100000001}},{"type":"Feature","id":12,"geometry":{"type":"Point","coordinates":[-94.208817199999942,36.37285380000003]},"properties":{"OBJECTID":12,"NAME":"Bentonville","state":"AR","new_archetype":"Destination","latitude":36.372853800000001,"longitude":-94.208817199999999}},{"type":"Feature","id":13,"geometry":{"type":"Point","coordinates":[-94.157432799999981,36.062584300000026]},"properties":{"OBJECTID":13,"NAME":"Fayetteville","state":"AR","new_archetype":"Opportunity","latitude":36.062584299999997,"longitude":-94.157432799999995}},{"type":"Feature","id":14,"geometry":{"type":"Point","coordinates":[-94.399645599999985,35.378466600000024]},"properties":{"OBJECTID":14,"NAME":"Fort Smith","state":"AR","new_archetype":"Risk","latitude":35.378466600000003,"longitude":-94.399645599999999}},{"type":"Feature","id":15,"geometry":{"type":"Point","coordinates":[-92.289626699999985,34.746507100000031]},"properties":{"OBJECTID":15,"NAME":"Little Rock","state":"AR","new_archetype":"Origin","latitude":34.746507100000002,"longitude":-92.289626699999999}},{"type":"Feature","id":16,"geometry":{"type":"Point","coordinates":[-92.267094099999952,34.769536000000073]},"properties":{"OBJECTID":16,"NAME":"North Little Rock","state":"AR","new_archetype":"Risk","latitude":34.769536000000002,"longitude":-92.267094099999994}},{"type":"Feature","id":17,"geometry":{"type":"Point","coordinates":[-92.442101099999945,35.088696300000038]},"properties":{"OBJECTID":17,"NAME":"Conway","state":"AR","new_archetype":"Risk","latitude":35.088696300000002,"longitude":-92.442101100000002}},{"type":"Feature","id":18,"geometry":{"type":"Point","coordinates":[-90.694987099999935,35.827225700000042]},"properties":{"OBJECTID":18,"NAME":"Jonesboro","state":"AR","new_archetype":"Risk","latitude":35.8272257,"longitude":-90.694987100000006}},{"type":"Feature","id":19,"geometry":{"type":"Point","coordinates":[-94.11853659999997,36.332019700000046]},"properties":{"OBJECTID":19,"NAME":"Rogers","state":"AR","new_archetype":"Risk","latitude":36.332019699999996,"longitude":-94.118536599999999}},{"type":"Feature","id":20,"geometry":{"type":"Point","coordinates":[-94.128814199999965,36.186744200000078]},"properties":{"OBJECTID":20,"NAME":"Springdale","state":"AR","new_archetype":"Risk","latitude":36.1867442,"longitude":-94.128814199999994}},{"type":"Feature","id":21,"geometry":{"type":"Point","coordinates":[-111.75735199999997,32.879502200000047]},"properties":{"OBJECTID":21,"NAME":"Casa Grande","state":"AZ","new_archetype":"Destination","latitude":32.879502199999997,"longitude":-111.757352}},{"type":"Feature","id":22,"geometry":{"type":"Point","coordinates":[-112.31572099999994,34.610024300000077]},"properties":{"OBJECTID":22,"NAME":"Prescott Valley","state":"AZ","new_archetype":"Destination","latitude":34.610024299999999,"longitude":-112.315721}},{"type":"Feature","id":23,"geometry":{"type":"Point","coordinates":[-111.92601839999998,33.494218900000078]},"properties":{"OBJECTID":23,"NAME":"Scottsdale","state":"AZ","new_archetype":"Origin","latitude":33.4942189,"longitude":-111.9260184}},{"type":"Feature","id":24,"geometry":{"type":"Point","coordinates":[-112.34960199999995,33.435597700000073]},"properties":{"OBJECTID":24,"NAME":"Avondale","state":"AZ","new_archetype":"Risk","latitude":33.435597700000002,"longitude":-112.349602}},{"type":"Feature","id":25,"geometry":{"type":"Point","coordinates":[-112.58377599999994,33.370319700000039]},"properties":{"OBJECTID":25,"NAME":"Buckeye","state":"AZ","new_archetype":"Risk","latitude":33.370319700000003,"longitude":-112.583776}},{"type":"Feature","id":26,"geometry":{"type":"Point","coordinates":[-111.84124999999995,33.306160500000033]},"properties":{"OBJECTID":26,"NAME":"Chandler","state":"AZ","new_archetype":"Risk","latitude":33.306160499999997,"longitude":-111.84125}},{"type":"Feature","id":27,"geometry":{"type":"Point","coordinates":[-111.65182289999996,35.198752200000058]},"properties":{"OBJECTID":27,"NAME":"Flagstaff","state":"AZ","new_archetype":"Risk","latitude":35.198752200000001,"longitude":-111.6518229}},{"type":"Feature","id":28,"geometry":{"type":"Point","coordinates":[-111.78903729999996,33.352763200000027]},"properties":{"OBJECTID":28,"NAME":"Gilbert","state":"AZ","new_archetype":"Risk","latitude":33.352763199999998,"longitude":-111.7890373}},{"type":"Feature","id":29,"geometry":{"type":"Point","coordinates":[-112.18599409999996,33.538685800000053]},"properties":{"OBJECTID":29,"NAME":"Glendale","state":"AZ","new_archetype":"Risk","latitude":33.538685800000003,"longitude":-112.1859941}},{"type":"Feature","id":30,"geometry":{"type":"Point","coordinates":[-112.35759999999999,33.43536720000003]},"properties":{"OBJECTID":30,"NAME":"Goodyear","state":"AZ","new_archetype":"Risk","latitude":33.435367200000002,"longitude":-112.35760000000001}},{"type":"Feature","id":31,"geometry":{"type":"Point","coordinates":[-114.32244949999995,34.483850200000063]},"properties":{"OBJECTID":31,"NAME":"Lake Havasu City","state":"AZ","new_archetype":"Destination","latitude":34.483850199999999,"longitude":-114.3224495}},{"type":"Feature","id":32,"geometry":{"type":"Point","coordinates":[-111.21570899999995,32.444698800000026]},"properties":{"OBJECTID":32,"NAME":"Marana","state":"AZ","new_archetype":"Risk","latitude":32.444698799999998,"longitude":-111.215709}},{"type":"Feature","id":33,"geometry":{"type":"Point","coordinates":[-112.04775539999997,33.058129000000065]},"properties":{"OBJECTID":33,"NAME":"Maricopa","state":"AZ","new_archetype":"Risk","latitude":33.058129000000001,"longitude":-112.0477554}},{"type":"Feature","id":34,"geometry":{"type":"Point","coordinates":[-111.83147919999999,33.415111700000068]},"properties":{"OBJECTID":34,"NAME":"Mesa","state":"AZ","new_archetype":"Risk","latitude":33.415111699999997,"longitude":-111.8314792}},{"type":"Feature","id":35,"geometry":{"type":"Point","coordinates":[-112.23729399999996,33.580611500000032]},"properties":{"OBJECTID":35,"NAME":"Peoria","state":"AZ","new_archetype":"Risk","latitude":33.580611500000003,"longitude":-112.23729400000001}},{"type":"Feature","id":36,"geometry":{"type":"Point","coordinates":[-112.07414099999994,33.448436700000059]},"properties":{"OBJECTID":36,"NAME":"Phoenix","state":"AZ","new_archetype":"Risk","latitude":33.448436700000002,"longitude":-112.074141}},{"type":"Feature","id":37,"geometry":{"type":"Point","coordinates":[-111.63415799999996,33.248385800000051]},"properties":{"OBJECTID":37,"NAME":"Queen Creek","state":"AZ","new_archetype":"Risk","latitude":33.248385800000001,"longitude":-111.634158}},{"type":"Feature","id":38,"geometry":{"type":"Point","coordinates":[-112.36801889999998,33.629227100000037]},"properties":{"OBJECTID":38,"NAME":"Surprise","state":"AZ","new_archetype":"Risk","latitude":33.629227100000001,"longitude":-112.3680189}},{"type":"Feature","id":39,"geometry":{"type":"Point","coordinates":[-111.94000909999994,33.425505600000065]},"properties":{"OBJECTID":39,"NAME":"Tempe","state":"AZ","new_archetype":"Risk","latitude":33.425505600000001,"longitude":-111.9400091}},{"type":"Feature","id":40,"geometry":{"type":"Point","coordinates":[-110.97484769999994,32.222876500000041]},"properties":{"OBJECTID":40,"NAME":"Tucson","state":"AZ","new_archetype":"Risk","latitude":32.222876499999998,"longitude":-110.9748477}},{"type":"Feature","id":41,"geometry":{"type":"Point","coordinates":[-114.47603159999994,32.665135000000078]},"properties":{"OBJECTID":41,"NAME":"Yuma","state":"AZ","new_archetype":"Risk","latitude":32.665134999999999,"longitude":-114.4760316}},{"type":"Feature","id":42,"geometry":{"type":"Point","coordinates":[-118.12705999999997,34.093042000000025]},"properties":{"OBJECTID":42,"NAME":"Alhambra","state":"CA","new_archetype":"Risk","latitude":34.093041999999997,"longitude":-118.12706}},{"type":"Feature","id":43,"geometry":{"type":"Point","coordinates":[-117.18587589999998,34.500831100000028]},"properties":{"OBJECTID":43,"NAME":"Apple Valley","state":"CA","new_archetype":"Origin","latitude":34.500831099999999,"longitude":-117.1858759}},{"type":"Feature","id":44,"geometry":{"type":"Point","coordinates":[-118.04014969999997,34.136207500000069]},"properties":{"OBJECTID":44,"NAME":"Arcadia","state":"CA","new_archetype":"Risk","latitude":34.136207499999998,"longitude":-118.0401497}},{"type":"Feature","id":45,"geometry":{"type":"Point","coordinates":[-116.97630919999995,33.929992500000026]},"properties":{"OBJECTID":45,"NAME":"Beaumont","state":"CA","new_archetype":"Origin","latitude":33.929992499999997,"longitude":-116.9763092}},{"type":"Feature","id":46,"geometry":{"type":"Point","coordinates":[-116.97630919999995,33.929992500000026]},"properties":{"OBJECTID":46,"NAME":"Beaumont","state":"CA","new_archetype":"Risk","latitude":33.929992499999997,"longitude":-116.9763092}},{"type":"Feature","id":47,"geometry":{"type":"Point","coordinates":[-118.11676789999996,33.882570500000043]},"properties":{"OBJECTID":47,"NAME":"Bellflower","state":"CA","new_archetype":"Origin","latitude":33.8825705,"longitude":-118.1167679}},{"type":"Feature","id":48,"geometry":{"type":"Point","coordinates":[-117.99621649999995,33.870413000000042]},"properties":{"OBJECTID":48,"NAME":"Buena Park","state":"CA","new_archetype":"Origin","latitude":33.870412999999999,"longitude":-117.9962165}},{"type":"Feature","id":49,"geometry":{"type":"Point","coordinates":[-117.35059659999996,33.158093300000075]},"properties":{"OBJECTID":49,"NAME":"Carlsbad","state":"CA","new_archetype":"Origin","latitude":33.158093299999997,"longitude":-117.3505966}},{"type":"Feature","id":50,"geometry":{"type":"Point","coordinates":[-116.46407599999998,33.781003100000078]},"properties":{"OBJECTID":50,"NAME":"Cathedral City","state":"CA","new_archetype":"Risk","latitude":33.7810031,"longitude":-116.46407600000001}},{"type":"Feature","id":51,"geometry":{"type":"Point","coordinates":[-121.83747769999997,39.728494500000068]},"properties":{"OBJECTID":51,"NAME":"Chico","state":"CA","new_archetype":"Risk","latitude":39.728494499999996,"longitude":-121.83747769999999}},{"type":"Feature","id":52,"geometry":{"type":"Point","coordinates":[-117.69007499999998,34.013356100000067]},"properties":{"OBJECTID":52,"NAME":"Chino","state":"CA","new_archetype":"Risk","latitude":34.013356100000003,"longitude":-117.69007499999999}},{"type":"Feature","id":53,"geometry":{"type":"Point","coordinates":[-117.76005599999996,33.992680300000075]},"properties":{"OBJECTID":53,"NAME":"Chino Hills","state":"CA","new_archetype":"Risk","latitude":33.992680300000004,"longitude":-117.76005600000001}},{"type":"Feature","id":54,"geometry":{"type":"Point","coordinates":[-117.08419549999996,32.640054100000043]},"properties":{"OBJECTID":54,"NAME":"Chula Vista","state":"CA","new_archetype":"Coastal Destination","latitude":32.6400541,"longitude":-117.08419550000001}},{"type":"Feature","id":55,"geometry":{"type":"Point","coordinates":[-121.28106109999999,38.707124700000065]},"properties":{"OBJECTID":55,"NAME":"Citrus Heights","state":"CA","new_archetype":"Destination","latitude":38.707124700000001,"longitude":-121.2810611}},{"type":"Feature","id":56,"geometry":{"type":"Point","coordinates":[-119.70291939999998,36.825227700000028]},"properties":{"OBJECTID":56,"NAME":"Clovis","state":"CA","new_archetype":"Risk","latitude":36.825227699999999,"longitude":-119.7029194}},{"type":"Feature","id":57,"geometry":{"type":"Point","coordinates":[-117.31365469999997,34.073901600000056]},"properties":{"OBJECTID":57,"NAME":"Colton","state":"CA","new_archetype":"Origin","latitude":34.073901599999999,"longitude":-117.3136547}},{"type":"Feature","id":58,"geometry":{"type":"Point","coordinates":[-118.22662399999996,33.894927000000052]},"properties":{"OBJECTID":58,"NAME":"Compton","state":"CA","new_archetype":"Origin","latitude":33.894927000000003,"longitude":-118.226624}},{"type":"Feature","id":59,"geometry":{"type":"Point","coordinates":[-117.56644489999996,33.875294500000052]},"properties":{"OBJECTID":59,"NAME":"Corona","state":"CA","new_archetype":"Origin","latitude":33.875294500000003,"longitude":-117.56644489999999}},{"type":"Feature","id":60,"geometry":{"type":"Point","coordinates":[-117.90331699999996,33.663338600000031]},"properties":{"OBJECTID":60,"NAME":"Costa Mesa","state":"CA","new_archetype":"Origin","latitude":33.663338600000003,"longitude":-117.903317}},{"type":"Feature","id":61,"geometry":{"type":"Point","coordinates":[-122.03228949999999,37.322893400000055]},"properties":{"OBJECTID":61,"NAME":"Cupertino","state":"CA","new_archetype":"Origin","latitude":37.322893399999998,"longitude":-122.0322895}},{"type":"Feature","id":62,"geometry":{"type":"Point","coordinates":[-121.74458299999998,38.545379000000025]},"properties":{"OBJECTID":62,"NAME":"Davis","state":"CA","new_archetype":"Destination","latitude":38.545378999999997,"longitude":-121.74458300000001}},{"type":"Feature","id":63,"geometry":{"type":"Point","coordinates":[-119.24705359999996,35.768842500000062]},"properties":{"OBJECTID":63,"NAME":"Delano","state":"CA","new_archetype":"Opportunity","latitude":35.768842499999998,"longitude":-119.2470536}},{"type":"Feature","id":64,"geometry":{"type":"Point","coordinates":[-117.81033669999999,34.028622600000062]},"properties":{"OBJECTID":64,"NAME":"Diamond Bar","state":"CA","new_archetype":"Risk","latitude":34.028622599999998,"longitude":-117.81033669999999}},{"type":"Feature","id":65,"geometry":{"type":"Point","coordinates":[-117.56654099999997,33.97470670000007]},"properties":{"OBJECTID":65,"NAME":"Eastvale","state":"CA","new_archetype":"Risk","latitude":33.974706699999999,"longitude":-117.566541}},{"type":"Feature","id":66,"geometry":{"type":"Point","coordinates":[-118.03684899999996,34.075157100000069]},"properties":{"OBJECTID":66,"NAME":"El Monte","state":"CA","new_archetype":"Risk","latitude":34.075157099999998,"longitude":-118.036849}},{"type":"Feature","id":67,"geometry":{"type":"Point","coordinates":[-121.37161779999997,38.408799300000055]},"properties":{"OBJECTID":67,"NAME":"Elk Grove","state":"CA","new_archetype":"Destination","latitude":38.408799299999998,"longitude":-121.3716178}},{"type":"Feature","id":68,"geometry":{"type":"Point","coordinates":[-117.29198179999997,33.036986700000057]},"properties":{"OBJECTID":68,"NAME":"Encinitas","state":"CA","new_archetype":"Coastal Destination","latitude":33.0369867,"longitude":-117.2919818}},{"type":"Feature","id":69,"geometry":{"type":"Point","coordinates":[-121.17605829999997,38.677959100000066]},"properties":{"OBJECTID":69,"NAME":"Folsom","state":"CA","new_archetype":"Destination","latitude":38.677959100000002,"longitude":-121.17605829999999}},{"type":"Feature","id":70,"geometry":{"type":"Point","coordinates":[-117.43504799999994,34.092233500000077]},"properties":{"OBJECTID":70,"NAME":"Fontana","state":"CA","new_archetype":"Risk","latitude":34.092233499999999,"longitude":-117.43504799999999}},{"type":"Feature","id":71,"geometry":{"type":"Point","coordinates":[-117.96273489999999,33.703814500000078]},"properties":{"OBJECTID":71,"NAME":"Fountain Valley","state":"CA","new_archetype":"Origin","latitude":33.7038145,"longitude":-117.9627349}},{"type":"Feature","id":72,"geometry":{"type":"Point","coordinates":[-119.64568439999999,36.327450200000044]},"properties":{"OBJECTID":72,"NAME":"Hanford","state":"CA","new_archetype":"Origin","latitude":36.327450200000001,"longitude":-119.64568439999999}},{"type":"Feature","id":73,"geometry":{"type":"Point","coordinates":[-116.97196839999998,33.747520300000076]},"properties":{"OBJECTID":73,"NAME":"Hemet","state":"CA","new_archetype":"Risk","latitude":33.747520299999998,"longitude":-116.97196839999999}},{"type":"Feature","id":74,"geometry":{"type":"Point","coordinates":[-117.30087839999999,34.426388600000053]},"properties":{"OBJECTID":74,"NAME":"Hesperia","state":"CA","new_archetype":"Risk","latitude":34.426388600000003,"longitude":-117.3008784}},{"type":"Feature","id":75,"geometry":{"type":"Point","coordinates":[-117.18079729999994,34.112130000000036]},"properties":{"OBJECTID":75,"NAME":"Highland","state":"CA","new_archetype":"Risk","latitude":34.112130000000001,"longitude":-117.18079729999999}},{"type":"Feature","id":76,"geometry":{"type":"Point","coordinates":[-116.21880539999995,33.719280800000035]},"properties":{"OBJECTID":76,"NAME":"Indio","state":"CA","new_archetype":"Risk","latitude":33.7192808,"longitude":-116.21880539999999}},{"type":"Feature","id":77,"geometry":{"type":"Point","coordinates":[-117.45157539999997,33.979847200000052]},"properties":{"OBJECTID":77,"NAME":"Jurupa Valley","state":"CA","new_archetype":"Risk","latitude":33.979847200000002,"longitude":-117.4515754}},{"type":"Feature","id":78,"geometry":{"type":"Point","coordinates":[-117.94548669999995,33.931606600000066]},"properties":{"OBJECTID":78,"NAME":"La Habra","state":"CA","new_archetype":"Origin","latitude":33.931606600000002,"longitude":-117.9454867}},{"type":"Feature","id":79,"geometry":{"type":"Point","coordinates":[-117.02308389999996,32.767828800000075]},"properties":{"OBJECTID":79,"NAME":"La Mesa","state":"CA","new_archetype":"Destination","latitude":32.767828799999997,"longitude":-117.0230839}},{"type":"Feature","id":80,"geometry":{"type":"Point","coordinates":[-117.32726149999996,33.668077200000027]},"properties":{"OBJECTID":80,"NAME":"Lake Elsinore","state":"CA","new_archetype":"Risk","latitude":33.668077199999999,"longitude":-117.32726150000001}},{"type":"Feature","id":81,"geometry":{"type":"Point","coordinates":[-118.11719099999999,33.850346300000069]},"properties":{"OBJECTID":81,"NAME":"Lakewood","state":"CA","new_archetype":"Destination","latitude":33.850346299999998,"longitude":-118.11719100000001}},{"type":"Feature","id":82,"geometry":{"type":"Point","coordinates":[-117.17704369999996,33.686443200000042]},"properties":{"OBJECTID":82,"NAME":"Menifee","state":"CA","new_archetype":"Risk","latitude":33.686443199999999,"longitude":-117.1770437}},{"type":"Feature","id":83,"geometry":{"type":"Point","coordinates":[-120.48432689999999,37.302956800000061]},"properties":{"OBJECTID":83,"NAME":"Merced","state":"CA","new_archetype":"Risk","latitude":37.302956799999997,"longitude":-120.4843269}},{"type":"Feature","id":84,"geometry":{"type":"Point","coordinates":[-117.65940499999999,33.596568500000046]},"properties":{"OBJECTID":84,"NAME":"Mission Viejo","state":"CA","new_archetype":"Risk","latitude":33.596568499999997,"longitude":-117.65940500000001}},{"type":"Feature","id":85,"geometry":{"type":"Point","coordinates":[-120.99687819999997,37.639097200000037]},"properties":{"OBJECTID":85,"NAME":"Modesto","state":"CA","new_archetype":"Risk","latitude":37.639097200000002,"longitude":-120.9968782}},{"type":"Feature","id":86,"geometry":{"type":"Point","coordinates":[-118.11197499999997,34.015939800000069]},"properties":{"OBJECTID":86,"NAME":"Montebello","state":"CA","new_archetype":"Origin","latitude":34.015939799999998,"longitude":-118.111975}},{"type":"Feature","id":87,"geometry":{"type":"Point","coordinates":[-118.12980699999997,34.051522000000034]},"properties":{"OBJECTID":87,"NAME":"Monterey Park","state":"CA","new_archetype":"Origin","latitude":34.051521999999999,"longitude":-118.129807}},{"type":"Feature","id":88,"geometry":{"type":"Point","coordinates":[-117.23059439999997,33.937517000000071]},"properties":{"OBJECTID":88,"NAME":"Moreno Valley","state":"CA","new_archetype":"Risk","latitude":33.937517,"longitude":-117.2305944}},{"type":"Feature","id":89,"geometry":{"type":"Point","coordinates":[-117.21065639999995,33.560832000000062]},"properties":{"OBJECTID":89,"NAME":"Murrieta","state":"CA","new_archetype":"Risk","latitude":33.560831999999998,"longitude":-117.2106564}},{"type":"Feature","id":90,"geometry":{"type":"Point","coordinates":[-117.92944009999997,33.617009200000041]},"properties":{"OBJECTID":90,"NAME":"Newport Beach","state":"CA","new_archetype":"Risk","latitude":33.617009199999998,"longitude":-117.92944009999999}},{"type":"Feature","id":91,"geometry":{"type":"Point","coordinates":[-122.56811909999999,38.106197900000041]},"properties":{"OBJECTID":91,"NAME":"Novato","state":"CA","new_archetype":"Risk","latitude":38.106197899999998,"longitude":-122.5681191}},{"type":"Feature","id":92,"geometry":{"type":"Point","coordinates":[-117.37948339999997,33.195869600000037]},"properties":{"OBJECTID":92,"NAME":"Oceanside","state":"CA","new_archetype":"Coastal Destination","latitude":33.195869600000002,"longitude":-117.3794834}},{"type":"Feature","id":93,"geometry":{"type":"Point","coordinates":[-117.64843039999994,34.065846000000079]},"properties":{"OBJECTID":93,"NAME":"Ontario","state":"CA","new_archetype":"Risk","latitude":34.065846000000001,"longitude":-117.6484304}},{"type":"Feature","id":94,"geometry":{"type":"Point","coordinates":[-117.85030799999998,33.78725680000008]},"properties":{"OBJECTID":94,"NAME":"Orange","state":"CA","new_archetype":"Origin","latitude":33.787256800000002,"longitude":-117.850308}},{"type":"Feature","id":95,"geometry":{"type":"Point","coordinates":[-116.38257099999998,33.728817900000024]},"properties":{"OBJECTID":95,"NAME":"Palm Desert","state":"CA","new_archetype":"Risk","latitude":33.728817900000003,"longitude":-116.382571}},{"type":"Feature","id":96,"geometry":{"type":"Point","coordinates":[-117.22864779999998,33.782519400000069]},"properties":{"OBJECTID":96,"NAME":"Perris","state":"CA","new_archetype":"Risk","latitude":33.782519399999998,"longitude":-117.2286478}},{"type":"Feature","id":97,"geometry":{"type":"Point","coordinates":[-122.63646499999999,38.232582900000068]},"properties":{"OBJECTID":97,"NAME":"Petaluma","state":"CA","new_archetype":"Origin","latitude":38.232582899999997,"longitude":-122.636465}},{"type":"Feature","id":98,"geometry":{"type":"Point","coordinates":[-118.09673499999997,33.983068800000069]},"properties":{"OBJECTID":98,"NAME":"Pico Rivera","state":"CA","new_archetype":"Risk","latitude":33.983068799999998,"longitude":-118.096735}},{"type":"Feature","id":99,"geometry":{"type":"Point","coordinates":[-117.86173369999995,33.87148140000005]},"properties":{"OBJECTID":99,"NAME":"Placentia","state":"CA","new_archetype":"Origin","latitude":33.8714814,"longitude":-117.8617337}},{"type":"Feature","id":100,"geometry":{"type":"Point","coordinates":[-119.01676789999999,36.065230000000042]},"properties":{"OBJECTID":100,"NAME":"Porterville","state":"CA","new_archetype":"Risk","latitude":36.06523,"longitude":-119.0167679}},{"type":"Feature","id":101,"geometry":{"type":"Point","coordinates":[-121.30272799999995,38.589072300000055]},"properties":{"OBJECTID":101,"NAME":"Rancho Cordova","state":"CA","new_archetype":"Destination","latitude":38.589072299999998,"longitude":-121.302728}},{"type":"Feature","id":102,"geometry":{"type":"Point","coordinates":[-117.57517349999995,34.103319200000044]},"properties":{"OBJECTID":102,"NAME":"Rancho Cucamonga","state":"CA","new_archetype":"Origin","latitude":34.103319200000001,"longitude":-117.57517350000001}},{"type":"Feature","id":103,"geometry":{"type":"Point","coordinates":[-122.39167499999996,40.586356300000034]},"properties":{"OBJECTID":103,"NAME":"Redding","state":"CA","new_archetype":"Risk","latitude":40.586356299999998,"longitude":-122.39167500000001}},{"type":"Feature","id":104,"geometry":{"type":"Point","coordinates":[-117.18274449999996,34.055032800000049]},"properties":{"OBJECTID":104,"NAME":"Redlands","state":"CA","new_archetype":"Risk","latitude":34.055032799999999,"longitude":-117.1827445}},{"type":"Feature","id":105,"geometry":{"type":"Point","coordinates":[-117.37032349999998,34.10640010000003]},"properties":{"OBJECTID":105,"NAME":"Rialto","state":"CA","new_archetype":"Risk","latitude":34.106400100000002,"longitude":-117.3703235}},{"type":"Feature","id":106,"geometry":{"type":"Point","coordinates":[-122.34774799999997,37.935757600000045]},"properties":{"OBJECTID":106,"NAME":"Richmond","state":"CA","new_archetype":"Coastal Destination","latitude":37.935757600000002,"longitude":-122.347748}},{"type":"Feature","id":107,"geometry":{"type":"Point","coordinates":[-117.39616229999996,33.953354600000068]},"properties":{"OBJECTID":107,"NAME":"Riverside","state":"CA","new_archetype":"Risk","latitude":33.953354599999997,"longitude":-117.3961623}},{"type":"Feature","id":108,"geometry":{"type":"Point","coordinates":[-121.49389499999995,38.581060600000058]},"properties":{"OBJECTID":108,"NAME":"Sacramento","state":"CA","new_archetype":"Destination","latitude":38.581060600000001,"longitude":-121.49389499999999}},{"type":"Feature","id":109,"geometry":{"type":"Point","coordinates":[-117.28976519999998,34.108344900000077]},"properties":{"OBJECTID":109,"NAME":"San Bernardino","state":"CA","new_archetype":"Risk","latitude":34.108344899999999,"longitude":-117.28976520000001}},{"type":"Feature","id":110,"geometry":{"type":"Point","coordinates":[-117.61241789999997,33.427027500000065]},"properties":{"OBJECTID":110,"NAME":"San Clemente","state":"CA","new_archetype":"Origin","latitude":33.427027500000001,"longitude":-117.6124179}},{"type":"Feature","id":111,"geometry":{"type":"Point","coordinates":[-117.16277279999997,32.717420200000049]},"properties":{"OBJECTID":111,"NAME":"San Diego","state":"CA","new_archetype":"Coastal Destination","latitude":32.717420199999999,"longitude":-117.1627728}},{"type":"Feature","id":112,"geometry":{"type":"Point","coordinates":[-116.95890859999997,33.783966400000054]},"properties":{"OBJECTID":112,"NAME":"San Jacinto","state":"CA","new_archetype":"Risk","latitude":33.783966399999997,"longitude":-116.9589086}},{"type":"Feature","id":113,"geometry":{"type":"Point","coordinates":[-117.87322129999995,33.749495100000047]},"properties":{"OBJECTID":113,"NAME":"Santa Ana","state":"CA","new_archetype":"Risk","latitude":33.749495099999997,"longitude":-117.8732213}},{"type":"Feature","id":114,"geometry":{"type":"Point","coordinates":[-119.70266699999996,34.422131900000068]},"properties":{"OBJECTID":114,"NAME":"Santa Barbara","state":"CA","new_archetype":"Risk","latitude":34.422131899999997,"longitude":-119.70266700000001}},{"type":"Feature","id":115,"geometry":{"type":"Point","coordinates":[-116.97391669999996,32.838382800000034]},"properties":{"OBJECTID":115,"NAME":"Santee","state":"CA","new_archetype":"Destination","latitude":32.838382799999998,"longitude":-116.9739167}},{"type":"Feature","id":116,"geometry":{"type":"Point","coordinates":[-118.20098099999996,33.946345600000029]},"properties":{"OBJECTID":116,"NAME":"South Gate","state":"CA","new_archetype":"Origin","latitude":33.946345600000001,"longitude":-118.200981}},{"type":"Feature","id":117,"geometry":{"type":"Point","coordinates":[-122.41686639999995,37.653540300000031]},"properties":{"OBJECTID":117,"NAME":"South San Francisco","state":"CA","new_archetype":"Origin","latitude":37.653540300000003,"longitude":-122.4168664}},{"type":"Feature","id":118,"geometry":{"type":"Point","coordinates":[-121.29077959999995,37.957701600000064]},"properties":{"OBJECTID":118,"NAME":"Stockton","state":"CA","new_archetype":"Destination","latitude":37.9577016,"longitude":-121.29077959999999}},{"type":"Feature","id":119,"geometry":{"type":"Point","coordinates":[-117.14736609999994,33.494635300000027]},"properties":{"OBJECTID":119,"NAME":"Temecula","state":"CA","new_archetype":"Risk","latitude":33.494635299999999,"longitude":-117.1473661}},{"type":"Feature","id":120,"geometry":{"type":"Point","coordinates":[-118.83759369999996,34.170560900000055]},"properties":{"OBJECTID":120,"NAME":"Thousand Oaks","state":"CA","new_archetype":"Risk","latitude":34.170560899999998,"longitude":-118.8375937}},{"type":"Feature","id":121,"geometry":{"type":"Point","coordinates":[-119.34734209999999,36.207735100000036]},"properties":{"OBJECTID":121,"NAME":"Tulare","state":"CA","new_archetype":"Risk","latitude":36.207735100000001,"longitude":-119.34734210000001}},{"type":"Feature","id":122,"geometry":{"type":"Point","coordinates":[-120.84659409999995,37.49465680000003]},"properties":{"OBJECTID":122,"NAME":"Turlock","state":"CA","new_archetype":"Risk","latitude":37.494656800000001,"longitude":-120.8465941}},{"type":"Feature","id":123,"geometry":{"type":"Point","coordinates":[-117.82616599999994,33.745851100000039]},"properties":{"OBJECTID":123,"NAME":"Tustin","state":"CA","new_archetype":"Origin","latitude":33.745851100000003,"longitude":-117.826166}},{"type":"Feature","id":124,"geometry":{"type":"Point","coordinates":[-122.08162969999995,37.596323200000029]},"properties":{"OBJECTID":124,"NAME":"Union City","state":"CA","new_archetype":"Coastal Destination","latitude":37.5963232,"longitude":-122.08162969999999}},{"type":"Feature","id":125,"geometry":{"type":"Point","coordinates":[-117.64838759999998,34.097510000000057]},"properties":{"OBJECTID":125,"NAME":"Upland","state":"CA","new_archetype":"Origin","latitude":34.09751,"longitude":-117.64838760000001}},{"type":"Feature","id":126,"geometry":{"type":"Point","coordinates":[-117.29115649999994,34.536106700000062]},"properties":{"OBJECTID":126,"NAME":"Victorville","state":"CA","new_archetype":"Risk","latitude":34.536106699999998,"longitude":-117.2911565}},{"type":"Feature","id":127,"geometry":{"type":"Point","coordinates":[-119.29205799999994,36.330228400000067]},"properties":{"OBJECTID":127,"NAME":"Visalia","state":"CA","new_archetype":"Risk","latitude":36.330228400000003,"longitude":-119.292058}},{"type":"Feature","id":128,"geometry":{"type":"Point","coordinates":[-117.24253549999997,33.200036800000078]},"properties":{"OBJECTID":128,"NAME":"Vista","state":"CA","new_archetype":"Destination","latitude":33.200036799999999,"longitude":-117.2425355}},{"type":"Feature","id":129,"geometry":{"type":"Point","coordinates":[-121.53023399999995,38.580460900000048]},"properties":{"OBJECTID":129,"NAME":"West Sacramento","state":"CA","new_archetype":"Opportunity","latitude":38.580460899999999,"longitude":-121.53023399999999}},{"type":"Feature","id":130,"geometry":{"type":"Point","coordinates":[-117.98590539999998,33.757872500000076]},"properties":{"OBJECTID":130,"NAME":"Westminster","state":"CA","new_archetype":"Coastal Destination","latitude":33.757872499999998,"longitude":-117.98590539999999}},{"type":"Feature","id":131,"geometry":{"type":"Point","coordinates":[-121.77332849999999,38.678610900000081]},"properties":{"OBJECTID":131,"NAME":"Woodland","state":"CA","new_archetype":"Destination","latitude":38.678610900000002,"longitude":-121.77332850000001}},{"type":"Feature","id":132,"geometry":{"type":"Point","coordinates":[-117.82497049999995,33.890109600000073]},"properties":{"OBJECTID":132,"NAME":"Yorba Linda","state":"CA","new_archetype":"Origin","latitude":33.890109600000002,"longitude":-117.82497050000001}},{"type":"Feature","id":133,"geometry":{"type":"Point","coordinates":[-121.61691079999997,39.140447700000038]},"properties":{"OBJECTID":133,"NAME":"Yuba City","state":"CA","new_archetype":"Destination","latitude":39.140447700000003,"longitude":-121.6169108}},{"type":"Feature","id":134,"geometry":{"type":"Point","coordinates":[-117.04308649999996,34.033625000000029]},"properties":{"OBJECTID":134,"NAME":"Yucaipa","state":"CA","new_archetype":"Risk","latitude":34.033625000000001,"longitude":-117.0430865}},{"type":"Feature","id":135,"geometry":{"type":"Point","coordinates":[-118.08797629999998,34.067616900000075]},"properties":{"OBJECTID":135,"NAME":"Rosemead","state":"CA","new_archetype":"Origin","latitude":34.067616899999997,"longitude":-118.08797629999999}},{"type":"Feature","id":136,"geometry":{"type":"Point","coordinates":[-117.88911639999998,34.087792600000057]},"properties":{"OBJECTID":136,"NAME":"Covina","state":"CA","new_archetype":"Risk","latitude":34.0877926,"longitude":-117.88911640000001}},{"type":"Feature","id":137,"geometry":{"type":"Point","coordinates":[-119.31101589999997,34.36405730000007]},"properties":{"OBJECTID":137,"NAME":"San Buenaventura (Ventura)","state":"CA","new_archetype":"Risk","latitude":34.364057299999999,"longitude":-119.3110159}},{"type":"Feature","id":138,"geometry":{"type":"Point","coordinates":[-122.24163549999997,37.765207600000053]},"properties":{"OBJECTID":138,"NAME":"Alameda","state":"CA","new_archetype":"Risk","latitude":37.765207599999997,"longitude":-122.2416355}},{"type":"Feature","id":139,"geometry":{"type":"Point","coordinates":[-117.72581219999995,33.576137600000038]},"properties":{"OBJECTID":139,"NAME":"Aliso Viejo","state":"CA","new_archetype":"Risk","latitude":33.576137600000003,"longitude":-117.72581219999999}},{"type":"Feature","id":140,"geometry":{"type":"Point","coordinates":[-117.91173199999997,33.834751600000061]},"properties":{"OBJECTID":140,"NAME":"Anaheim","state":"CA","new_archetype":"Risk","latitude":33.834751599999997,"longitude":-117.911732}},{"type":"Feature","id":141,"geometry":{"type":"Point","coordinates":[-121.80578899999995,38.004921400000057]},"properties":{"OBJECTID":141,"NAME":"Antioch","state":"CA","new_archetype":"Risk","latitude":38.004921400000001,"longitude":-121.805789}},{"type":"Feature","id":142,"geometry":{"type":"Point","coordinates":[-119.01946389999995,35.373871200000053]},"properties":{"OBJECTID":142,"NAME":"Bakersfield","state":"CA","new_archetype":"Destination","latitude":35.373871200000004,"longitude":-119.01946390000001}},{"type":"Feature","id":143,"geometry":{"type":"Point","coordinates":[-117.96117609999999,34.085473900000068]},"properties":{"OBJECTID":143,"NAME":"Baldwin Park","state":"CA","new_archetype":"Origin","latitude":34.085473899999997,"longitude":-117.9611761}},{"type":"Feature","id":144,"geometry":{"type":"Point","coordinates":[-122.27286299999997,37.870839300000057]},"properties":{"OBJECTID":144,"NAME":"Berkeley","state":"CA","new_archetype":"Risk","latitude":37.8708393,"longitude":-122.272863}},{"type":"Feature","id":145,"geometry":{"type":"Point","coordinates":[-121.69602599999996,37.931776600000035]},"properties":{"OBJECTID":145,"NAME":"Brentwood","state":"CA","new_archetype":"Risk","latitude":37.931776599999999,"longitude":-121.696026}},{"type":"Feature","id":146,"geometry":{"type":"Point","coordinates":[-118.32585539999997,34.181648200000041]},"properties":{"OBJECTID":146,"NAME":"Burbank","state":"CA","new_archetype":"Risk","latitude":34.181648199999998,"longitude":-118.32585539999999}},{"type":"Feature","id":147,"geometry":{"type":"Point","coordinates":[-119.03835409999999,34.217637100000047]},"properties":{"OBJECTID":147,"NAME":"Camarillo","state":"CA","new_archetype":"Risk","latitude":34.217637099999997,"longitude":-119.03835410000001}},{"type":"Feature","id":148,"geometry":{"type":"Point","coordinates":[-118.25175469999999,33.832204300000058]},"properties":{"OBJECTID":148,"NAME":"Carson","state":"CA","new_archetype":"Risk","latitude":33.832204300000001,"longitude":-118.25175470000001}},{"type":"Feature","id":149,"geometry":{"type":"Point","coordinates":[-122.03356239999999,37.976852500000064]},"properties":{"OBJECTID":149,"NAME":"Concord","state":"CA","new_archetype":"Risk","latitude":37.9768525,"longitude":-122.03356239999999}},{"type":"Feature","id":150,"geometry":{"type":"Point","coordinates":[-122.47266999999999,37.690482600000053]},"properties":{"OBJECTID":150,"NAME":"Daly City","state":"CA","new_archetype":"Risk","latitude":37.690482600000003,"longitude":-122.47266999999999}},{"type":"Feature","id":151,"geometry":{"type":"Point","coordinates":[-118.12928459999995,33.940444100000036]},"properties":{"OBJECTID":151,"NAME":"Downey","state":"CA","new_archetype":"Risk","latitude":33.940444100000001,"longitude":-118.12928460000001}},{"type":"Feature","id":152,"geometry":{"type":"Point","coordinates":[-121.93579179999995,37.702152100000035]},"properties":{"OBJECTID":152,"NAME":"Dublin","state":"CA","new_archetype":"Risk","latitude":37.702152099999999,"longitude":-121.9357918}},{"type":"Feature","id":153,"geometry":{"type":"Point","coordinates":[-116.96252599999997,32.794773100000043]},"properties":{"OBJECTID":153,"NAME":"El Cajon","state":"CA","new_archetype":"Risk","latitude":32.7947731,"longitude":-116.962526}},{"type":"Feature","id":154,"geometry":{"type":"Point","coordinates":[-117.08148489999996,33.121675100000061]},"properties":{"OBJECTID":154,"NAME":"Escondido","state":"CA","new_archetype":"Risk","latitude":33.121675099999997,"longitude":-117.08148490000001}},{"type":"Feature","id":155,"geometry":{"type":"Point","coordinates":[-122.03996599999999,38.249358100000052]},"properties":{"OBJECTID":155,"NAME":"Fairfield","state":"CA","new_archetype":"Risk","latitude":38.249358100000002,"longitude":-122.03996600000001}},{"type":"Feature","id":156,"geometry":{"type":"Point","coordinates":[-121.98857099999998,37.548269700000048]},"properties":{"OBJECTID":156,"NAME":"Fremont","state":"CA","new_archetype":"Risk","latitude":37.548269699999999,"longitude":-121.98857099999999}},{"type":"Feature","id":157,"geometry":{"type":"Point","coordinates":[-119.70886129999997,36.729529500000069]},"properties":{"OBJECTID":157,"NAME":"Fresno","state":"CA","new_archetype":"Destination","latitude":36.729529499999998,"longitude":-119.7088613}},{"type":"Feature","id":158,"geometry":{"type":"Point","coordinates":[-117.92941649999995,33.870821500000034]},"properties":{"OBJECTID":158,"NAME":"Fullerton","state":"CA","new_archetype":"Risk","latitude":33.870821499999998,"longitude":-117.9294165}},{"type":"Feature","id":159,"geometry":{"type":"Point","coordinates":[-117.94637169999999,33.774629200000049]},"properties":{"OBJECTID":159,"NAME":"Garden Grove","state":"CA","new_archetype":"Risk","latitude":33.7746292,"longitude":-117.9463717}},{"type":"Feature","id":160,"geometry":{"type":"Point","coordinates":[-118.30530369999997,33.896359300000029]},"properties":{"OBJECTID":160,"NAME":"Gardena","state":"CA","new_archetype":"Risk","latitude":33.8963593,"longitude":-118.3053037}},{"type":"Feature","id":161,"geometry":{"type":"Point","coordinates":[-121.56317229999996,37.006507800000065]},"properties":{"OBJECTID":161,"NAME":"Gilroy","state":"CA","new_archetype":"Risk","latitude":37.006507800000001,"longitude":-121.56317230000001}},{"type":"Feature","id":162,"geometry":{"type":"Point","coordinates":[-118.24784709999994,34.146941600000048]},"properties":{"OBJECTID":162,"NAME":"Glendale","state":"CA","new_archetype":"Risk","latitude":34.146941599999998,"longitude":-118.2478471}},{"type":"Feature","id":163,"geometry":{"type":"Point","coordinates":[-117.86533899999995,34.136118700000054]},"properties":{"OBJECTID":163,"NAME":"Glendora","state":"CA","new_archetype":"Risk","latitude":34.136118699999997,"longitude":-117.86533900000001}},{"type":"Feature","id":164,"geometry":{"type":"Point","coordinates":[-118.34832559999995,33.918858900000032]},"properties":{"OBJECTID":164,"NAME":"Hawthorne","state":"CA","new_archetype":"Risk","latitude":33.918858899999996,"longitude":-118.3483256}},{"type":"Feature","id":165,"geometry":{"type":"Point","coordinates":[-122.08079599999996,37.668820500000038]},"properties":{"OBJECTID":165,"NAME":"Hayward","state":"CA","new_archetype":"Risk","latitude":37.668820500000002,"longitude":-122.08079600000001}},{"type":"Feature","id":166,"geometry":{"type":"Point","coordinates":[-118.00001659999998,33.67833360000003]},"properties":{"OBJECTID":166,"NAME":"Huntington Beach","state":"CA","new_archetype":"Risk","latitude":33.678333600000002,"longitude":-118.0000166}},{"type":"Feature","id":167,"geometry":{"type":"Point","coordinates":[-118.21203429999997,33.98270430000008]},"properties":{"OBJECTID":167,"NAME":"Huntington Park","state":"CA","new_archetype":"Origin","latitude":33.982704300000002,"longitude":-118.2120343}},{"type":"Feature","id":168,"geometry":{"type":"Point","coordinates":[-118.35313199999996,33.956200300000035]},"properties":{"OBJECTID":168,"NAME":"Inglewood","state":"CA","new_archetype":"Origin","latitude":33.956200299999999,"longitude":-118.353132}},{"type":"Feature","id":169,"geometry":{"type":"Point","coordinates":[-117.82598189999999,33.685696900000039]},"properties":{"OBJECTID":169,"NAME":"Irvine","state":"CA","new_archetype":"Risk","latitude":33.685696900000003,"longitude":-117.8259819}},{"type":"Feature","id":170,"geometry":{"type":"Point","coordinates":[-117.70755259999999,33.52252610000005]},"properties":{"OBJECTID":170,"NAME":"Laguna Niguel","state":"CA","new_archetype":"Risk","latitude":33.5225261,"longitude":-117.7075526}},{"type":"Feature","id":171,"geometry":{"type":"Point","coordinates":[-117.68592129999996,33.64692610000003]},"properties":{"OBJECTID":171,"NAME":"Lake Forest","state":"CA","new_archetype":"Risk","latitude":33.646926100000002,"longitude":-117.6859213}},{"type":"Feature","id":172,"geometry":{"type":"Point","coordinates":[-118.13661529999996,34.698106400000029]},"properties":{"OBJECTID":172,"NAME":"Lancaster","state":"CA","new_archetype":"Risk","latitude":34.6981064,"longitude":-118.1366153}},{"type":"Feature","id":173,"geometry":{"type":"Point","coordinates":[-121.29317999999995,38.891574100000071]},"properties":{"OBJECTID":173,"NAME":"Lincoln","state":"CA","new_archetype":"Destination","latitude":38.8915741,"longitude":-121.29318000000001}},{"type":"Feature","id":174,"geometry":{"type":"Point","coordinates":[-121.76805299999995,37.682058300000051]},"properties":{"OBJECTID":174,"NAME":"Livermore","state":"CA","new_archetype":"Risk","latitude":37.682058300000001,"longitude":-121.76805299999999}},{"type":"Feature","id":175,"geometry":{"type":"Point","coordinates":[-121.27244729999995,38.130196800000078]},"properties":{"OBJECTID":175,"NAME":"Lodi","state":"CA","new_archetype":"Risk","latitude":38.1301968,"longitude":-121.2724473}},{"type":"Feature","id":176,"geometry":{"type":"Point","coordinates":[-118.19160399999998,33.769016400000055]},"properties":{"OBJECTID":176,"NAME":"Long Beach","state":"CA","new_archetype":"Risk","latitude":33.769016399999998,"longitude":-118.191604}},{"type":"Feature","id":177,"geometry":{"type":"Point","coordinates":[-118.24276599999996,34.053690900000049]},"properties":{"OBJECTID":177,"NAME":"Los Angeles","state":"CA","new_archetype":"Risk","latitude":34.053690899999999,"longitude":-118.242766}},{"type":"Feature","id":178,"geometry":{"type":"Point","coordinates":[-118.20241539999995,33.92483100000004]},"properties":{"OBJECTID":178,"NAME":"Lynwood","state":"CA","new_archetype":"Origin","latitude":33.924830999999998,"longitude":-118.20241540000001}},{"type":"Feature","id":179,"geometry":{"type":"Point","coordinates":[-120.05946849999998,36.962274500000035]},"properties":{"OBJECTID":179,"NAME":"Madera","state":"CA","new_archetype":"Risk","latitude":36.962274499999999,"longitude":-120.05946849999999}},{"type":"Feature","id":180,"geometry":{"type":"Point","coordinates":[-121.22178819999999,37.816234350000059]},"properties":{"OBJECTID":180,"NAME":"Manteca","state":"CA","new_archetype":"Risk","latitude":37.816234350000002,"longitude":-121.22178820000001}},{"type":"Feature","id":181,"geometry":{"type":"Point","coordinates":[-121.89892479999997,37.433227300000055]},"properties":{"OBJECTID":181,"NAME":"Milpitas","state":"CA","new_archetype":"Risk","latitude":37.433227299999999,"longitude":-121.8989248}},{"type":"Feature","id":182,"geometry":{"type":"Point","coordinates":[-122.08321009999997,37.389388900000029]},"properties":{"OBJECTID":182,"NAME":"Mountain View","state":"CA","new_archetype":"Risk","latitude":37.3893889,"longitude":-122.0832101}},{"type":"Feature","id":183,"geometry":{"type":"Point","coordinates":[-122.28552929999995,38.297136700000067]},"properties":{"OBJECTID":183,"NAME":"Napa","state":"CA","new_archetype":"Risk","latitude":38.297136700000003,"longitude":-122.28552929999999}},{"type":"Feature","id":184,"geometry":{"type":"Point","coordinates":[-117.09919669999999,32.678108500000064]},"properties":{"OBJECTID":184,"NAME":"National City","state":"CA","new_archetype":"Risk","latitude":32.6781085,"longitude":-117.09919669999999}},{"type":"Feature","id":185,"geometry":{"type":"Point","coordinates":[-118.08491689999994,33.909280200000069]},"properties":{"OBJECTID":185,"NAME":"Norwalk","state":"CA","new_archetype":"Origin","latitude":33.909280199999998,"longitude":-118.0849169}},{"type":"Feature","id":186,"geometry":{"type":"Point","coordinates":[-122.27135599999997,37.804455700000062]},"properties":{"OBJECTID":186,"NAME":"Oakland","state":"CA","new_archetype":"Risk","latitude":37.804455699999998,"longitude":-122.271356}},{"type":"Feature","id":187,"geometry":{"type":"Point","coordinates":[-119.18038179999996,34.19763080000007]},"properties":{"OBJECTID":187,"NAME":"Oxnard","state":"CA","new_archetype":"Risk","latitude":34.197630799999999,"longitude":-119.18038180000001}},{"type":"Feature","id":188,"geometry":{"type":"Point","coordinates":[-118.11711079999998,34.579313100000036]},"properties":{"OBJECTID":188,"NAME":"Palmdale","state":"CA","new_archetype":"Risk","latitude":34.5793131,"longitude":-118.11711080000001}},{"type":"Feature","id":189,"geometry":{"type":"Point","coordinates":[-122.15984649999996,37.444329300000049]},"properties":{"OBJECTID":189,"NAME":"Palo Alto","state":"CA","new_archetype":"Risk","latitude":37.4443293,"longitude":-122.1598465}},{"type":"Feature","id":190,"geometry":{"type":"Point","coordinates":[-118.17100499999998,33.89891700000004]},"properties":{"OBJECTID":190,"NAME":"Paramount","state":"CA","new_archetype":"Risk","latitude":33.898916999999997,"longitude":-118.17100499999999}},{"type":"Feature","id":191,"geometry":{"type":"Point","coordinates":[-118.14447789999997,34.147645200000056]},"properties":{"OBJECTID":191,"NAME":"Pasadena","state":"CA","new_archetype":"Risk","latitude":34.147645199999999,"longitude":-118.1444779}},{"type":"Feature","id":192,"geometry":{"type":"Point","coordinates":[-121.89012319999995,38.018174500000043]},"properties":{"OBJECTID":192,"NAME":"Pittsburg","state":"CA","new_archetype":"Risk","latitude":38.018174500000001,"longitude":-121.8901232}},{"type":"Feature","id":193,"geometry":{"type":"Point","coordinates":[-121.87467889999999,37.662431200000071]},"properties":{"OBJECTID":193,"NAME":"Pleasanton","state":"CA","new_archetype":"Risk","latitude":37.6624312,"longitude":-121.87467890000001}},{"type":"Feature","id":194,"geometry":{"type":"Point","coordinates":[-117.75174959999998,34.055381300000079]},"properties":{"OBJECTID":194,"NAME":"Pomona","state":"CA","new_archetype":"Risk","latitude":34.055381300000001,"longitude":-117.7517496}},{"type":"Feature","id":195,"geometry":{"type":"Point","coordinates":[-118.38867659999994,33.845591100000036]},"properties":{"OBJECTID":195,"NAME":"Redondo Beach","state":"CA","new_archetype":"Risk","latitude":33.8455911,"longitude":-118.3886766}},{"type":"Feature","id":196,"geometry":{"type":"Point","coordinates":[-122.23252299999996,37.486323900000059]},"properties":{"OBJECTID":196,"NAME":"Redwood City","state":"CA","new_archetype":"Risk","latitude":37.486323900000002,"longitude":-122.232523}},{"type":"Feature","id":197,"geometry":{"type":"Point","coordinates":[-121.23578279999998,38.790733900000077]},"properties":{"OBJECTID":197,"NAME":"Rocklin","state":"CA","new_archetype":"Destination","latitude":38.790733899999999,"longitude":-121.2357828}},{"type":"Feature","id":198,"geometry":{"type":"Point","coordinates":[-121.28800589999997,38.752123500000039]},"properties":{"OBJECTID":198,"NAME":"Roseville","state":"CA","new_archetype":"Destination","latitude":38.752123500000003,"longitude":-121.2880059}},{"type":"Feature","id":199,"geometry":{"type":"Point","coordinates":[-121.65503699999999,36.674411700000064]},"properties":{"OBJECTID":199,"NAME":"Salinas","state":"CA","new_archetype":"Risk","latitude":36.6744117,"longitude":-121.65503699999999}},{"type":"Feature","id":200,"geometry":{"type":"Point","coordinates":[-122.41990599999997,37.779026200000033]},"properties":{"OBJECTID":200,"NAME":"San Francisco","state":"CA","new_archetype":"Risk","latitude":37.779026199999997,"longitude":-122.419906}},{"type":"Feature","id":201,"geometry":{"type":"Point","coordinates":[-121.89059099999997,37.336166300000059]},"properties":{"OBJECTID":201,"NAME":"San Jose","state":"CA","new_archetype":"Risk","latitude":37.336166300000002,"longitude":-121.890591}},{"type":"Feature","id":202,"geometry":{"type":"Point","coordinates":[-122.15607679999999,37.724929600000053]},"properties":{"OBJECTID":202,"NAME":"San Leandro","state":"CA","new_archetype":"Risk","latitude":37.724929600000003,"longitude":-122.15607679999999}},{"type":"Feature","id":203,"geometry":{"type":"Point","coordinates":[-117.16614489999995,33.143372300000067]},"properties":{"OBJECTID":203,"NAME":"San Marcos","state":"CA","new_archetype":"Risk","latitude":33.143372300000003,"longitude":-117.16614490000001}},{"type":"Feature","id":204,"geometry":{"type":"Point","coordinates":[-122.32532649999996,37.562999700000034]},"properties":{"OBJECTID":204,"NAME":"San Mateo","state":"CA","new_archetype":"Risk","latitude":37.562999699999999,"longitude":-122.3253265}},{"type":"Feature","id":205,"geometry":{"type":"Point","coordinates":[-122.53108739999999,37.97353460000005]},"properties":{"OBJECTID":205,"NAME":"San Rafael","state":"CA","new_archetype":"Risk","latitude":37.973534600000001,"longitude":-122.5310874}},{"type":"Feature","id":206,"geometry":{"type":"Point","coordinates":[-121.95443869999997,37.764802100000054]},"properties":{"OBJECTID":206,"NAME":"San Ramon","state":"CA","new_archetype":"Risk","latitude":37.764802099999997,"longitude":-121.9544387}},{"type":"Feature","id":207,"geometry":{"type":"Point","coordinates":[-121.95517399999994,37.354113200000029]},"properties":{"OBJECTID":207,"NAME":"Santa Clara","state":"CA","new_archetype":"Risk","latitude":37.3541132,"longitude":-121.955174}},{"type":"Feature","id":208,"geometry":{"type":"Point","coordinates":[-118.54258599999997,34.391664100000071]},"properties":{"OBJECTID":208,"NAME":"Santa Clarita","state":"CA","new_archetype":"Risk","latitude":34.3916641,"longitude":-118.542586}},{"type":"Feature","id":209,"geometry":{"type":"Point","coordinates":[-122.02946729999996,36.974362600000063]},"properties":{"OBJECTID":209,"NAME":"Santa Cruz","state":"CA","new_archetype":"Risk","latitude":36.974362599999999,"longitude":-122.02946729999999}},{"type":"Feature","id":210,"geometry":{"type":"Point","coordinates":[-120.43585699999994,34.953129500000045]},"properties":{"OBJECTID":210,"NAME":"Santa Maria","state":"CA","new_archetype":"Risk","latitude":34.953129500000003,"longitude":-120.435857}},{"type":"Feature","id":211,"geometry":{"type":"Point","coordinates":[-118.49122699999998,34.019470400000046]},"properties":{"OBJECTID":211,"NAME":"Santa Monica","state":"CA","new_archetype":"Risk","latitude":34.019470400000003,"longitude":-118.49122699999999}},{"type":"Feature","id":212,"geometry":{"type":"Point","coordinates":[-122.7141049,38.440492500000062]},"properties":{"OBJECTID":212,"NAME":"Santa Rosa","state":"CA","new_archetype":"Risk","latitude":38.440492499999998,"longitude":-122.7141049}},{"type":"Feature","id":213,"geometry":{"type":"Point","coordinates":[-118.75380709999996,34.267740400000037]},"properties":{"OBJECTID":213,"NAME":"Simi Valley","state":"CA","new_archetype":"Risk","latitude":34.267740400000001,"longitude":-118.7538071}},{"type":"Feature","id":214,"geometry":{"type":"Point","coordinates":[-122.03634899999997,37.368830100000025]},"properties":{"OBJECTID":214,"NAME":"Sunnyvale","state":"CA","new_archetype":"Risk","latitude":37.368830099999997,"longitude":-122.036349}},{"type":"Feature","id":215,"geometry":{"type":"Point","coordinates":[-118.34062879999999,33.835849200000041]},"properties":{"OBJECTID":215,"NAME":"Torrance","state":"CA","new_archetype":"Origin","latitude":33.835849199999998,"longitude":-118.3406288}},{"type":"Feature","id":216,"geometry":{"type":"Point","coordinates":[-121.42013949999995,37.738550700000076]},"properties":{"OBJECTID":216,"NAME":"Tracy","state":"CA","new_archetype":"Risk","latitude":37.738550699999998,"longitude":-121.4201395}},{"type":"Feature","id":217,"geometry":{"type":"Point","coordinates":[-121.98774439999994,38.356577300000026]},"properties":{"OBJECTID":217,"NAME":"Vacaville","state":"CA","new_archetype":"Risk","latitude":38.356577299999998,"longitude":-121.9877444}},{"type":"Feature","id":218,"geometry":{"type":"Point","coordinates":[-122.25663669999994,38.104086400000028]},"properties":{"OBJECTID":218,"NAME":"Vallejo","state":"CA","new_archetype":"Risk","latitude":38.1040864,"longitude":-122.2566367}},{"type":"Feature","id":219,"geometry":{"type":"Point","coordinates":[-122.06187019999999,37.902073100000052]},"properties":{"OBJECTID":219,"NAME":"Walnut Creek","state":"CA","new_archetype":"Risk","latitude":37.902073100000003,"longitude":-122.0618702}},{"type":"Feature","id":220,"geometry":{"type":"Point","coordinates":[-121.75290709999996,36.909277300000042]},"properties":{"OBJECTID":220,"NAME":"Watsonville","state":"CA","new_archetype":"Risk","latitude":36.909277299999999,"longitude":-121.7529071}},{"type":"Feature","id":221,"geometry":{"type":"Point","coordinates":[-117.93895259999999,34.068620800000076]},"properties":{"OBJECTID":221,"NAME":"West Covina","state":"CA","new_archetype":"Risk","latitude":34.068620799999998,"longitude":-117.93895259999999}},{"type":"Feature","id":222,"geometry":{"type":"Point","coordinates":[-118.03083899999996,33.970878200000072]},"properties":{"OBJECTID":222,"NAME":"Whittier","state":"CA","new_archetype":"Risk","latitude":33.970878200000001,"longitude":-118.030839}},{"type":"Feature","id":223,"geometry":{"type":"Point","coordinates":[-105.08115729999997,39.800550500000043]},"properties":{"OBJECTID":223,"NAME":"Arvada","state":"CO","new_archetype":"Destination","latitude":39.8005505,"longitude":-105.0811573}},{"type":"Feature","id":224,"geometry":{"type":"Point","coordinates":[-105.27054499999997,40.014985600000045]},"properties":{"OBJECTID":224,"NAME":"Boulder","state":"CO","new_archetype":"Destination","latitude":40.014985600000003,"longitude":-105.270545}},{"type":"Feature","id":225,"geometry":{"type":"Point","coordinates":[-105.05207999999999,39.940399500000069]},"properties":{"OBJECTID":225,"NAME":"Broomfield","state":"CO","new_archetype":"Destination","latitude":39.940399499999998,"longitude":-105.05208}},{"type":"Feature","id":226,"geometry":{"type":"Point","coordinates":[-104.85868259999995,39.372255200000041]},"properties":{"OBJECTID":226,"NAME":"Castle Rock","state":"CO","new_archetype":"Destination","latitude":39.372255199999998,"longitude":-104.85868259999999}},{"type":"Feature","id":227,"geometry":{"type":"Point","coordinates":[-104.82534799999996,38.833957800000064]},"properties":{"OBJECTID":227,"NAME":"Colorado Springs","state":"CO","new_archetype":"Destination","latitude":38.8339578,"longitude":-104.82534800000001}},{"type":"Feature","id":228,"geometry":{"type":"Point","coordinates":[-105.06680849999998,40.550852700000064]},"properties":{"OBJECTID":228,"NAME":"Fort Collins","state":"CO","new_archetype":"Destination","latitude":40.5508527,"longitude":-105.06680849999999}},{"type":"Feature","id":229,"geometry":{"type":"Point","coordinates":[-108.55073169999997,39.063956000000076]},"properties":{"OBJECTID":229,"NAME":"Grand Junction","state":"CO","new_archetype":"Destination","latitude":39.063955999999997,"longitude":-108.5507317}},{"type":"Feature","id":230,"geometry":{"type":"Point","coordinates":[-104.70913219999994,40.42331420000005]},"properties":{"OBJECTID":230,"NAME":"Greeley","state":"CO","new_archetype":"Destination","latitude":40.4233142,"longitude":-104.7091322}},{"type":"Feature","id":231,"geometry":{"type":"Point","coordinates":[-105.08466939999994,39.708573600000079]},"properties":{"OBJECTID":231,"NAME":"Lakewood","state":"CO","new_archetype":"Destination","latitude":39.708573600000001,"longitude":-105.0846694}},{"type":"Feature","id":232,"geometry":{"type":"Point","coordinates":[-105.10192869999997,40.167211700000053]},"properties":{"OBJECTID":232,"NAME":"Longmont","state":"CO","new_archetype":"Destination","latitude":40.167211700000003,"longitude":-105.1019287}},{"type":"Feature","id":233,"geometry":{"type":"Point","coordinates":[-105.04436129999999,40.385549000000026]},"properties":{"OBJECTID":233,"NAME":"Loveland","state":"CO","new_archetype":"Destination","latitude":40.385548999999997,"longitude":-105.04436130000001}},{"type":"Feature","id":234,"geometry":{"type":"Point","coordinates":[-96.622069199999942,33.055568700000038]},"properties":{"OBJECTID":234,"NAME":"Parker","state":"CO","new_archetype":"Destination","latitude":33.055568700000002,"longitude":-96.622069199999999}},{"type":"Feature","id":235,"geometry":{"type":"Point","coordinates":[-104.60914099999997,38.254447200000072]},"properties":{"OBJECTID":235,"NAME":"Pueblo","state":"CO","new_archetype":"Destination","latitude":38.254447200000001,"longitude":-104.60914099999999}},{"type":"Feature","id":236,"geometry":{"type":"Point","coordinates":[-105.03720459999994,39.836652800000024]},"properties":{"OBJECTID":236,"NAME":"Westminster","state":"CO","new_archetype":"Destination","latitude":39.836652800000003,"longitude":-105.0372046}},{"type":"Feature","id":237,"geometry":{"type":"Point","coordinates":[-88.314753899999971,41.757170100000053]},"properties":{"OBJECTID":237,"NAME":"Aurora","state":"CO","new_archetype":"Destination","latitude":41.757170100000003,"longitude":-88.314753899999999}},{"type":"Feature","id":238,"geometry":{"type":"Point","coordinates":[-104.87692269999997,39.579155000000071]},"properties":{"OBJECTID":238,"NAME":"Centennial","state":"CO","new_archetype":"Destination","latitude":39.579155,"longitude":-104.87692269999999}},{"type":"Feature","id":239,"geometry":{"type":"Point","coordinates":[-104.93386749999996,39.808319600000061]},"properties":{"OBJECTID":239,"NAME":"Commerce City","state":"CO","new_archetype":"Destination","latitude":39.808319599999997,"longitude":-104.93386750000001}},{"type":"Feature","id":240,"geometry":{"type":"Point","coordinates":[-104.98486199999996,39.739236400000038]},"properties":{"OBJECTID":240,"NAME":"Denver","state":"CO","new_archetype":"Destination","latitude":39.739236400000003,"longitude":-104.98486200000001}},{"type":"Feature","id":241,"geometry":{"type":"Point","coordinates":[-104.98518099999995,39.869551600000079]},"properties":{"OBJECTID":241,"NAME":"Thornton","state":"CO","new_archetype":"Destination","latitude":39.869551600000001,"longitude":-104.985181}},{"type":"Feature","id":242,"geometry":{"type":"Point","coordinates":[-72.612034599999959,41.782321600000046]},"properties":{"OBJECTID":242,"NAME":"East Hartford","state":"CT","new_archetype":"Coastal Destination","latitude":41.782321600000003,"longitude":-72.612034600000001}},{"type":"Feature","id":243,"geometry":{"type":"Point","coordinates":[-73.204834799999958,41.167041200000028]},"properties":{"OBJECTID":243,"NAME":"Bridgeport","state":"CT","new_archetype":"Opportunity","latitude":41.1670412,"longitude":-73.2048348}},{"type":"Feature","id":244,"geometry":{"type":"Point","coordinates":[-72.946485899999971,41.673520900000028]},"properties":{"OBJECTID":244,"NAME":"Bristol","state":"CT","new_archetype":"Opportunity","latitude":41.6735209,"longitude":-72.946485899999999}},{"type":"Feature","id":245,"geometry":{"type":"Point","coordinates":[-73.454011099999946,41.394817000000046]},"properties":{"OBJECTID":245,"NAME":"Danbury","state":"CT","new_archetype":"Opportunity","latitude":41.394817000000003,"longitude":-73.454011100000002}},{"type":"Feature","id":246,"geometry":{"type":"Point","coordinates":[-72.690854699999988,41.764582000000075]},"properties":{"OBJECTID":246,"NAME":"Hartford","state":"CT","new_archetype":"Opportunity","latitude":41.764581999999997,"longitude":-72.690854700000003}},{"type":"Feature","id":247,"geometry":{"type":"Point","coordinates":[-72.807043499999963,41.538153500000078]},"properties":{"OBJECTID":247,"NAME":"Meriden","state":"CT","new_archetype":"Opportunity","latitude":41.5381535,"longitude":-72.807043500000006}},{"type":"Feature","id":248,"geometry":{"type":"Point","coordinates":[-73.057060299999989,41.222221800000057]},"properties":{"OBJECTID":248,"NAME":"Milford city (balance)","state":"CT","new_archetype":"Opportunity","latitude":41.2222218,"longitude":-73.057060300000003}},{"type":"Feature","id":249,"geometry":{"type":"Point","coordinates":[-72.77954189999997,41.661210400000073]},"properties":{"OBJECTID":249,"NAME":"New Britain","state":"CT","new_archetype":"Opportunity","latitude":41.661210400000002,"longitude":-72.779541899999998}},{"type":"Feature","id":250,"geometry":{"type":"Point","coordinates":[-72.925051799999949,41.308213800000033]},"properties":{"OBJECTID":250,"NAME":"New Haven","state":"CT","new_archetype":"Opportunity","latitude":41.308213799999997,"longitude":-72.925051800000006}},{"type":"Feature","id":251,"geometry":{"type":"Point","coordinates":[-73.407896799999946,41.11759660000007]},"properties":{"OBJECTID":251,"NAME":"Norwalk","state":"CT","new_archetype":"Origin","latitude":41.117596599999999,"longitude":-73.407896800000003}},{"type":"Feature","id":252,"geometry":{"type":"Point","coordinates":[-73.538734099999942,41.053430200000037]},"properties":{"OBJECTID":252,"NAME":"Stamford","state":"CT","new_archetype":"Origin","latitude":41.053430200000001,"longitude":-73.538734099999999}},{"type":"Feature","id":253,"geometry":{"type":"Point","coordinates":[-73.043836199999987,41.55380910000008]},"properties":{"OBJECTID":253,"NAME":"Waterbury","state":"CT","new_archetype":"Opportunity","latitude":41.553809100000002,"longitude":-73.043836200000001}},{"type":"Feature","id":254,"geometry":{"type":"Point","coordinates":[-72.947047099999963,41.270652700000028]},"properties":{"OBJECTID":254,"NAME":"West Haven","state":"CT","new_archetype":"Opportunity","latitude":41.270652699999999,"longitude":-72.947047100000006}},{"type":"Feature","id":255,"geometry":{"type":"Point","coordinates":[-77.036542699999984,38.895036800000071]},"properties":{"OBJECTID":255,"NAME":"Washington","state":"DC","new_archetype":"Coastal Destination","latitude":38.8950368,"longitude":-77.036542699999998}},{"type":"Feature","id":256,"geometry":{"type":"Point","coordinates":[-75.546588999999983,39.74594680000007]},"properties":{"OBJECTID":256,"NAME":"Wilmington","state":"DE","new_archetype":"Origin","latitude":39.745946799999999,"longitude":-75.546588999999997}},{"type":"Feature","id":257,"geometry":{"type":"Point","coordinates":[-75.546588999999983,39.74594680000007]},"properties":{"OBJECTID":257,"NAME":"Wilmington","state":"DE","new_archetype":"Risk","latitude":39.745946799999999,"longitude":-75.546588999999997}},{"type":"Feature","id":258,"geometry":{"type":"Point","coordinates":[-80.066602599999953,26.525617900000043]},"properties":{"OBJECTID":258,"NAME":"Boynton Beach","state":"FL","new_archetype":"Coastal Destination","latitude":26.5256179,"longitude":-80.066602599999996}},{"type":"Feature","id":259,"geometry":{"type":"Point","coordinates":[-82.800102599999946,27.965853300000049]},"properties":{"OBJECTID":259,"NAME":"Clearwater","state":"FL","new_archetype":"Coastal Destination","latitude":27.965853299999999,"longitude":-82.800102600000002}},{"type":"Feature","id":260,"geometry":{"type":"Point","coordinates":[-81.772854299999949,28.549444700000038]},"properties":{"OBJECTID":260,"NAME":"Clermont","state":"FL","new_archetype":"Risk","latitude":28.549444699999999,"longitude":-81.772854300000006}},{"type":"Feature","id":261,"geometry":{"type":"Point","coordinates":[-80.17893509999999,26.251748200000065]},"properties":{"OBJECTID":261,"NAME":"Coconut Creek","state":"FL","new_archetype":"Coastal Destination","latitude":26.251748200000002,"longitude":-80.178935100000004}},{"type":"Feature","id":262,"geometry":{"type":"Point","coordinates":[-80.268383799999981,25.721490000000074]},"properties":{"OBJECTID":262,"NAME":"Coral Gables","state":"FL","new_archetype":"Opportunity","latitude":25.721489999999999,"longitude":-80.268383799999995}},{"type":"Feature","id":263,"geometry":{"type":"Point","coordinates":[-81.263673799999935,28.900544600000046]},"properties":{"OBJECTID":263,"NAME":"Deltona","state":"FL","new_archetype":"Destination","latitude":28.9005446,"longitude":-81.263673800000007}},{"type":"Feature","id":264,"geometry":{"type":"Point","coordinates":[-80.355330199999969,25.819542400000046]},"properties":{"OBJECTID":264,"NAME":"Doral","state":"FL","new_archetype":"Coastal Destination","latitude":25.8195424,"longitude":-80.355330199999997}},{"type":"Feature","id":265,"geometry":{"type":"Point","coordinates":[-80.32560559999996,27.44670560000003]},"properties":{"OBJECTID":265,"NAME":"Fort Pierce","state":"FL","new_archetype":"Risk","latitude":27.446705600000001,"longitude":-80.325605600000003}},{"type":"Feature","id":266,"geometry":{"type":"Point","coordinates":[-80.278105699999969,25.857596300000068]},"properties":{"OBJECTID":266,"NAME":"Hialeah","state":"FL","new_archetype":"Coastal Destination","latitude":25.857596300000001,"longitude":-80.278105699999998}},{"type":"Feature","id":267,"geometry":{"type":"Point","coordinates":[-80.14949009999998,26.011201400000061]},"properties":{"OBJECTID":267,"NAME":"Hollywood","state":"FL","new_archetype":"Coastal Destination","latitude":26.011201400000001,"longitude":-80.149490099999994}},{"type":"Feature","id":268,"geometry":{"type":"Point","coordinates":[-81.655650999999978,30.332183800000053]},"properties":{"OBJECTID":268,"NAME":"Jacksonville","state":"FL","new_archetype":"Coastal Destination","latitude":30.332183799999999,"longitude":-81.655651000000006}},{"type":"Feature","id":269,"geometry":{"type":"Point","coordinates":[-80.094208699999967,26.93422460000005]},"properties":{"OBJECTID":269,"NAME":"Jupiter","state":"FL","new_archetype":"Coastal Destination","latitude":26.9342246,"longitude":-80.094208699999996}},{"type":"Feature","id":270,"geometry":{"type":"Point","coordinates":[-81.407583799999941,28.291899500000056]},"properties":{"OBJECTID":270,"NAME":"Kissimmee","state":"FL","new_archetype":"Risk","latitude":28.2918995,"longitude":-81.407583799999998}},{"type":"Feature","id":271,"geometry":{"type":"Point","coordinates":[-82.787324399999989,27.909466500000065]},"properties":{"OBJECTID":271,"NAME":"Largo","state":"FL","new_archetype":"Coastal Destination","latitude":27.909466500000001,"longitude":-82.787324400000003}},{"type":"Feature","id":272,"geometry":{"type":"Point","coordinates":[-80.213380799999982,26.140363500000035]},"properties":{"OBJECTID":272,"NAME":"Lauderhill","state":"FL","new_archetype":"Coastal Destination","latitude":26.140363499999999,"longitude":-80.213380799999996}},{"type":"Feature","id":273,"geometry":{"type":"Point","coordinates":[-80.20643599999994,26.244526300000075]},"properties":{"OBJECTID":273,"NAME":"Margate","state":"FL","new_archetype":"Coastal Destination","latitude":26.2445263,"longitude":-80.206435999999997}},{"type":"Feature","id":274,"geometry":{"type":"Point","coordinates":[-80.193619999999953,25.774172800000031]},"properties":{"OBJECTID":274,"NAME":"Miami","state":"FL","new_archetype":"Coastal Destination","latitude":25.774172799999999,"longitude":-80.193619999999996}},{"type":"Feature","id":275,"geometry":{"type":"Point","coordinates":[-80.135300599999937,25.79291980000005]},"properties":{"OBJECTID":275,"NAME":"Miami Beach","state":"FL","new_archetype":"Opportunity","latitude":25.7929198,"longitude":-80.135300599999994}},{"type":"Feature","id":276,"geometry":{"type":"Point","coordinates":[-80.245604499999956,25.942037700000071]},"properties":{"OBJECTID":276,"NAME":"Miami Gardens","state":"FL","new_archetype":"Coastal Destination","latitude":25.9420377,"longitude":-80.245604499999999}},{"type":"Feature","id":277,"geometry":{"type":"Point","coordinates":[-80.232270599999936,25.987313700000072]},"properties":{"OBJECTID":277,"NAME":"Miramar","state":"FL","new_archetype":"Coastal Destination","latitude":25.987313700000001,"longitude":-80.232270600000007}},{"type":"Feature","id":278,"geometry":{"type":"Point","coordinates":[-80.18671379999995,25.890094900000065]},"properties":{"OBJECTID":278,"NAME":"North Miami","state":"FL","new_archetype":"Coastal Destination","latitude":25.890094900000001,"longitude":-80.186713800000007}},{"type":"Feature","id":279,"geometry":{"type":"Point","coordinates":[-81.544116999999972,28.569518600000038]},"properties":{"OBJECTID":279,"NAME":"Ocoee","state":"FL","new_archetype":"Risk","latitude":28.569518599999999,"longitude":-81.544117}},{"type":"Feature","id":280,"geometry":{"type":"Point","coordinates":[-80.636614399999985,27.994696900000065]},"properties":{"OBJECTID":280,"NAME":"Palm Bay","state":"FL","new_archetype":"Origin","latitude":27.994696900000001,"longitude":-80.636614399999999}},{"type":"Feature","id":281,"geometry":{"type":"Point","coordinates":[-80.138654699999961,26.823394600000029]},"properties":{"OBJECTID":281,"NAME":"Palm Beach Gardens","state":"FL","new_archetype":"Coastal Destination","latitude":26.8233946,"longitude":-80.138654700000004}},{"type":"Feature","id":282,"geometry":{"type":"Point","coordinates":[-80.233103599999936,26.127586200000053]},"properties":{"OBJECTID":282,"NAME":"Plantation","state":"FL","new_archetype":"Opportunity","latitude":26.1275862,"longitude":-80.233103600000007}},{"type":"Feature","id":283,"geometry":{"type":"Point","coordinates":[-81.268022299999984,28.811734500000057]},"properties":{"OBJECTID":283,"NAME":"Sanford","state":"FL","new_archetype":"Destination","latitude":28.8117345,"longitude":-81.268022299999998}},{"type":"Feature","id":284,"geometry":{"type":"Point","coordinates":[-82.530854499999975,27.336580500000025]},"properties":{"OBJECTID":284,"NAME":"Sarasota","state":"FL","new_archetype":"Origin","latitude":27.3365805,"longitude":-82.530854500000004}},{"type":"Feature","id":285,"geometry":{"type":"Point","coordinates":[-81.283903799999962,28.249853400000063]},"properties":{"OBJECTID":285,"NAME":"St. Cloud","state":"FL","new_archetype":"Risk","latitude":28.249853399999999,"longitude":-81.283903800000004}},{"type":"Feature","id":286,"geometry":{"type":"Point","coordinates":[-82.669508499999949,27.770379600000069]},"properties":{"OBJECTID":286,"NAME":"St. Petersburg","state":"FL","new_archetype":"Coastal Destination","latitude":27.770379599999998,"longitude":-82.669508500000006}},{"type":"Feature","id":287,"geometry":{"type":"Point","coordinates":[-80.278757299999938,26.166688800000031]},"properties":{"OBJECTID":287,"NAME":"Sunrise","state":"FL","new_archetype":"Coastal Destination","latitude":26.166688799999999,"longitude":-80.278757299999995}},{"type":"Feature","id":288,"geometry":{"type":"Point","coordinates":[-84.280933199999936,30.438083200000051]},"properties":{"OBJECTID":288,"NAME":"Tallahassee","state":"FL","new_archetype":"Origin","latitude":30.438083200000001,"longitude":-84.280933200000007}},{"type":"Feature","id":289,"geometry":{"type":"Point","coordinates":[-82.458443999999986,27.947759500000075]},"properties":{"OBJECTID":289,"NAME":"Tampa","state":"FL","new_archetype":"Coastal Destination","latitude":27.9477595,"longitude":-82.458444}},{"type":"Feature","id":290,"geometry":{"type":"Point","coordinates":[-80.053294199999982,26.715364000000079]},"properties":{"OBJECTID":290,"NAME":"West Palm Beach","state":"FL","new_archetype":"Coastal Destination","latitude":26.715364000000001,"longitude":-80.053294199999996}},{"type":"Feature","id":291,"geometry":{"type":"Point","coordinates":[-80.399512999999956,26.100339200000064]},"properties":{"OBJECTID":291,"NAME":"Weston","state":"FL","new_archetype":"Coastal Destination","latitude":26.100339200000001,"longitude":-80.399512999999999}},{"type":"Feature","id":292,"geometry":{"type":"Point","coordinates":[-81.511521399999936,28.677968300000032]},"properties":{"OBJECTID":292,"NAME":"Apopka","state":"FL","new_archetype":"Destination","latitude":28.6779683,"longitude":-81.511521400000007}},{"type":"Feature","id":293,"geometry":{"type":"Point","coordinates":[-80.083098399999983,26.358688500000028]},"properties":{"OBJECTID":293,"NAME":"Boca Raton","state":"FL","new_archetype":"Risk","latitude":26.3586885,"longitude":-80.083098399999997}},{"type":"Feature","id":294,"geometry":{"type":"Point","coordinates":[-81.778697199999954,26.339806000000067]},"properties":{"OBJECTID":294,"NAME":"Bonita Springs","state":"FL","new_archetype":"Risk","latitude":26.339805999999999,"longitude":-81.778697199999996}},{"type":"Feature","id":295,"geometry":{"type":"Point","coordinates":[-82.574819399999967,27.498927800000047]},"properties":{"OBJECTID":295,"NAME":"Bradenton","state":"FL","new_archetype":"Risk","latitude":27.498927800000001,"longitude":-82.574819399999996}},{"type":"Feature","id":296,"geometry":{"type":"Point","coordinates":[-81.98067709999998,26.60594320000007]},"properties":{"OBJECTID":296,"NAME":"Cape Coral","state":"FL","new_archetype":"Risk","latitude":26.605943199999999,"longitude":-81.980677099999994}},{"type":"Feature","id":297,"geometry":{"type":"Point","coordinates":[-80.270604399999968,26.271192000000042]},"properties":{"OBJECTID":297,"NAME":"Coral Springs","state":"FL","new_archetype":"Risk","latitude":26.271191999999999,"longitude":-80.270604399999996}},{"type":"Feature","id":298,"geometry":{"type":"Point","coordinates":[-80.233103799999981,26.062866500000041]},"properties":{"OBJECTID":298,"NAME":"Davie","state":"FL","new_archetype":"Risk","latitude":26.062866499999998,"longitude":-80.233103799999995}},{"type":"Feature","id":299,"geometry":{"type":"Point","coordinates":[-81.022833099999957,29.210814700000071]},"properties":{"OBJECTID":299,"NAME":"Daytona Beach","state":"FL","new_archetype":"Risk","latitude":29.2108147,"longitude":-81.0228331}},{"type":"Feature","id":300,"geometry":{"type":"Point","coordinates":[-80.099630599999955,26.31834200000003]},"properties":{"OBJECTID":300,"NAME":"Deerfield Beach","state":"FL","new_archetype":"Risk","latitude":26.318342000000001,"longitude":-80.099630599999998}},{"type":"Feature","id":301,"geometry":{"type":"Point","coordinates":[-80.072820099999944,26.461462500000039]},"properties":{"OBJECTID":301,"NAME":"Delray Beach","state":"FL","new_archetype":"Risk","latitude":26.4614625,"longitude":-80.072820100000001}},{"type":"Feature","id":302,"geometry":{"type":"Point","coordinates":[-80.143378599999949,26.122308400000065]},"properties":{"OBJECTID":302,"NAME":"Fort Lauderdale","state":"FL","new_archetype":"Risk","latitude":26.122308400000001,"longitude":-80.143378600000005}},{"type":"Feature","id":303,"geometry":{"type":"Point","coordinates":[-81.872308399999952,26.640628000000049]},"properties":{"OBJECTID":303,"NAME":"Fort Myers","state":"FL","new_archetype":"Risk","latitude":26.640628,"longitude":-81.872308399999994}},{"type":"Feature","id":304,"geometry":{"type":"Point","coordinates":[-82.324984599999937,29.651968400000044]},"properties":{"OBJECTID":304,"NAME":"Gainesville","state":"FL","new_archetype":"Destination","latitude":29.651968400000001,"longitude":-82.324984599999993}},{"type":"Feature","id":305,"geometry":{"type":"Point","coordinates":[-80.475990499999966,25.471894600000041]},"properties":{"OBJECTID":305,"NAME":"Homestead","state":"FL","new_archetype":"Risk","latitude":25.471894599999999,"longitude":-80.475990499999995}},{"type":"Feature","id":306,"geometry":{"type":"Point","coordinates":[-81.94980419999996,28.03946540000004]},"properties":{"OBJECTID":306,"NAME":"Lakeland","state":"FL","new_archetype":"Destination","latitude":28.039465400000001,"longitude":-81.949804200000003}},{"type":"Feature","id":307,"geometry":{"type":"Point","coordinates":[-80.637151299999971,28.106471000000056]},"properties":{"OBJECTID":307,"NAME":"Melbourne","state":"FL","new_archetype":"Risk","latitude":28.106470999999999,"longitude":-80.637151299999999}},{"type":"Feature","id":308,"geometry":{"type":"Point","coordinates":[-82.235925399999985,27.044224000000042]},"properties":{"OBJECTID":308,"NAME":"North Port","state":"FL","new_archetype":"Risk","latitude":27.044224,"longitude":-82.235925399999999}},{"type":"Feature","id":309,"geometry":{"type":"Point","coordinates":[-82.140092299999935,29.187198600000045]},"properties":{"OBJECTID":309,"NAME":"Ocala","state":"FL","new_archetype":"Risk","latitude":29.187198599999999,"longitude":-82.140092300000006}},{"type":"Feature","id":310,"geometry":{"type":"Point","coordinates":[-81.379030399999976,28.542110900000068]},"properties":{"OBJECTID":310,"NAME":"Orlando","state":"FL","new_archetype":"Destination","latitude":28.542110900000001,"longitude":-81.379030400000005}},{"type":"Feature","id":311,"geometry":{"type":"Point","coordinates":[-81.220767299999977,29.554143200000055]},"properties":{"OBJECTID":311,"NAME":"Palm Coast","state":"FL","new_archetype":"Risk","latitude":29.554143199999999,"longitude":-81.220767300000006}},{"type":"Feature","id":312,"geometry":{"type":"Point","coordinates":[-80.223936999999978,26.003146500000071]},"properties":{"OBJECTID":312,"NAME":"Pembroke Pines","state":"FL","new_archetype":"Risk","latitude":26.0031465,"longitude":-80.223937000000006}},{"type":"Feature","id":313,"geometry":{"type":"Point","coordinates":[-87.216914899999949,30.421309000000065]},"properties":{"OBJECTID":313,"NAME":"Pensacola","state":"FL","new_archetype":"Risk","latitude":30.421309000000001,"longitude":-87.216914900000006}},{"type":"Feature","id":314,"geometry":{"type":"Point","coordinates":[-82.699544399999979,27.842802500000062]},"properties":{"OBJECTID":314,"NAME":"Pinellas Park","state":"FL","new_archetype":"Risk","latitude":27.842802500000001,"longitude":-82.699544399999994}},{"type":"Feature","id":315,"geometry":{"type":"Point","coordinates":[-80.124766699999952,26.237859700000058]},"properties":{"OBJECTID":315,"NAME":"Pompano Beach","state":"FL","new_archetype":"Risk","latitude":26.237859700000001,"longitude":-80.124766699999995}},{"type":"Feature","id":316,"geometry":{"type":"Point","coordinates":[-81.010596179999936,29.101628050000045]},"properties":{"OBJECTID":316,"NAME":"Port Orange","state":"FL","new_archetype":"Risk","latitude":29.101628049999999,"longitude":-81.010596179999993}},{"type":"Feature","id":317,"geometry":{"type":"Point","coordinates":[-80.350328299999944,27.293933300000049]},"properties":{"OBJECTID":317,"NAME":"Port St. Lucie","state":"FL","new_archetype":"Risk","latitude":27.293933299999999,"longitude":-80.350328300000001}},{"type":"Feature","id":318,"geometry":{"type":"Point","coordinates":[-82.536355699999945,28.463526600000023]},"properties":{"OBJECTID":318,"NAME":"Spring Hill","state":"FL","new_archetype":"Risk","latitude":28.463526600000002,"longitude":-82.536355700000001}},{"type":"Feature","id":319,"geometry":{"type":"Point","coordinates":[-80.249770699999942,26.212860900000067]},"properties":{"OBJECTID":319,"NAME":"Tamarac","state":"FL","new_archetype":"Risk","latitude":26.212860899999999,"longitude":-80.249770699999999}},{"type":"Feature","id":320,"geometry":{"type":"Point","coordinates":[-80.241435699999954,26.658677900000043]},"properties":{"OBJECTID":320,"NAME":"Wellington","state":"FL","new_archetype":"Risk","latitude":26.658677900000001,"longitude":-80.241435699999997}},{"type":"Feature","id":321,"geometry":{"type":"Point","coordinates":[-81.732856799999979,28.022243500000059]},"properties":{"OBJECTID":321,"NAME":"Winter Haven","state":"FL","new_archetype":"Destination","latitude":28.022243499999998,"longitude":-81.732856799999993}},{"type":"Feature","id":322,"geometry":{"type":"Point","coordinates":[-81.974799999999959,33.473500000000058]},"properties":{"OBJECTID":322,"NAME":"Augusta-Richmond County consolidated government (balance)","state":"GA","new_archetype":"Destination","latitude":33.473500000000001,"longitude":-81.974800000000002}},{"type":"Feature","id":323,"geometry":{"type":"Point","coordinates":[-84.340202999999974,33.85843680000005]},"properties":{"OBJECTID":323,"NAME":"Brookhaven","state":"GA","new_archetype":"Destination","latitude":33.8584368,"longitude":-84.340203000000002}},{"type":"Feature","id":324,"geometry":{"type":"Point","coordinates":[-84.190195999999958,34.018155700000079]},"properties":{"OBJECTID":324,"NAME":"Johns Creek","state":"GA","new_archetype":"Opportunity","latitude":34.018155700000001,"longitude":-84.190196}},{"type":"Feature","id":325,"geometry":{"type":"Point","coordinates":[-84.582263199999943,33.818833300000051]},"properties":{"OBJECTID":325,"NAME":"Mableton","state":"GA","new_archetype":"Destination","latitude":33.818833300000001,"longitude":-84.5822632}},{"type":"Feature","id":326,"geometry":{"type":"Point","coordinates":[-83.632399999999961,32.840700000000027]},"properties":{"OBJECTID":326,"NAME":"Macon-Bibb County","state":"GA","new_archetype":"Opportunity","latitude":32.840699999999998,"longitude":-83.632400000000004}},{"type":"Feature","id":327,"geometry":{"type":"Point","coordinates":[-84.360021999999958,34.023320000000069]},"properties":{"OBJECTID":327,"NAME":"Roswell","state":"GA","new_archetype":"Opportunity","latitude":34.023319999999998,"longitude":-84.360022000000001}},{"type":"Feature","id":328,"geometry":{"type":"Point","coordinates":[-84.671229199999971,33.590265900000077]},"properties":{"OBJECTID":328,"NAME":"South Fulton","state":"GA","new_archetype":"Destination","latitude":33.590265899999999,"longitude":-84.671229199999999}},{"type":"Feature","id":329,"geometry":{"type":"Point","coordinates":[-84.135850499999947,33.683129600000029]},"properties":{"OBJECTID":329,"NAME":"Stonecrest","state":"GA","new_archetype":"Destination","latitude":33.683129600000001,"longitude":-84.135850500000004}},{"type":"Feature","id":330,"geometry":{"type":"Point","coordinates":[-83.357599999999934,33.95190000000008]},"properties":{"OBJECTID":330,"NAME":"Athens-Clarke County unified government (balance)","state":"GA","new_archetype":"Destination","latitude":33.951900000000002,"longitude":-83.357600000000005}},{"type":"Feature","id":331,"geometry":{"type":"Point","coordinates":[-84.155680899999936,31.578206200000068]},"properties":{"OBJECTID":331,"NAME":"Albany","state":"GA","new_archetype":"Opportunity","latitude":31.5782062,"longitude":-84.155680899999993}},{"type":"Feature","id":332,"geometry":{"type":"Point","coordinates":[-84.274732899999947,34.070957600000042]},"properties":{"OBJECTID":332,"NAME":"Alpharetta","state":"GA","new_archetype":"Destination","latitude":34.0709576,"longitude":-84.274732900000004}},{"type":"Feature","id":333,"geometry":{"type":"Point","coordinates":[-84.390264399999978,33.748992400000077]},"properties":{"OBJECTID":333,"NAME":"Atlanta","state":"GA","new_archetype":"Destination","latitude":33.748992399999999,"longitude":-84.390264400000007}},{"type":"Feature","id":334,"geometry":{"type":"Point","coordinates":[-84.988044899999977,32.461070800000073]},"properties":{"OBJECTID":334,"NAME":"Columbus","state":"GA","new_archetype":"Destination","latitude":32.461070800000002,"longitude":-84.988044900000006}},{"type":"Feature","id":335,"geometry":{"type":"Point","coordinates":[-84.334268599999973,33.94637860000006]},"properties":{"OBJECTID":335,"NAME":"Dunwoody","state":"GA","new_archetype":"Destination","latitude":33.946378600000003,"longitude":-84.334268600000001}},{"type":"Feature","id":336,"geometry":{"type":"Point","coordinates":[-84.549614799999972,33.952847200000065]},"properties":{"OBJECTID":336,"NAME":"Marietta","state":"GA","new_archetype":"Destination","latitude":33.952847200000001,"longitude":-84.549614800000001}},{"type":"Feature","id":337,"geometry":{"type":"Point","coordinates":[-84.378537899999969,33.92426880000005]},"properties":{"OBJECTID":337,"NAME":"Sandy Springs","state":"GA","new_archetype":"Destination","latitude":33.9242688,"longitude":-84.378537899999998}},{"type":"Feature","id":338,"geometry":{"type":"Point","coordinates":[-81.095127099999956,32.056457200000068]},"properties":{"OBJECTID":338,"NAME":"Savannah","state":"GA","new_archetype":"Risk","latitude":32.056457199999997,"longitude":-81.095127099999999}},{"type":"Feature","id":339,"geometry":{"type":"Point","coordinates":[-84.514745399999981,33.883887000000072]},"properties":{"OBJECTID":339,"NAME":"Smyrna","state":"GA","new_archetype":"Destination","latitude":33.883887000000001,"longitude":-84.514745399999995}},{"type":"Feature","id":340,"geometry":{"type":"Point","coordinates":[-83.278485099999955,30.832702200000028]},"properties":{"OBJECTID":340,"NAME":"Valdosta","state":"GA","new_archetype":"Destination","latitude":30.8327022,"longitude":-83.278485099999997}},{"type":"Feature","id":341,"geometry":{"type":"Point","coordinates":[-83.606567999999982,32.620097300000054]},"properties":{"OBJECTID":341,"NAME":"Warner Robins","state":"GA","new_archetype":"Destination","latitude":32.620097299999998,"longitude":-83.606567999999996}},{"type":"Feature","id":342,"geometry":{"type":"Point","coordinates":[-157.85829999999996,21.306900000000041]},"properties":{"OBJECTID":342,"NAME":"Urban Honolulu","state":"HI","new_archetype":"Coastal Destination","latitude":21.306899999999999,"longitude":-157.85830000000001}},{"type":"Feature","id":343,"geometry":{"type":"Point","coordinates":[-93.617044799999974,42.026756700000078]},"properties":{"OBJECTID":343,"NAME":"Ames","state":"IA","new_archetype":"Destination","latitude":42.0267567,"longitude":-93.617044800000002}},{"type":"Feature","id":344,"geometry":{"type":"Point","coordinates":[-93.605091999999956,41.732079600000077]},"properties":{"OBJECTID":344,"NAME":"Ankeny","state":"IA","new_archetype":"Destination","latitude":41.732079599999999,"longitude":-93.605091999999999}},{"type":"Feature","id":345,"geometry":{"type":"Point","coordinates":[-91.67040529999997,41.975887200000045]},"properties":{"OBJECTID":345,"NAME":"Cedar Rapids","state":"IA","new_archetype":"Destination","latitude":41.975887200000003,"longitude":-91.670405299999999}},{"type":"Feature","id":346,"geometry":{"type":"Point","coordinates":[-95.851948399999969,41.258841000000075]},"properties":{"OBJECTID":346,"NAME":"Council Bluffs","state":"IA","new_archetype":"Opportunity","latitude":41.258840999999997,"longitude":-95.851948399999998}},{"type":"Feature","id":347,"geometry":{"type":"Point","coordinates":[-90.57709669999997,41.523580800000047]},"properties":{"OBJECTID":347,"NAME":"Davenport","state":"IA","new_archetype":"Destination","latitude":41.523580799999998,"longitude":-90.577096699999998}},{"type":"Feature","id":348,"geometry":{"type":"Point","coordinates":[-93.604665499999953,41.591032300000052]},"properties":{"OBJECTID":348,"NAME":"Des Moines","state":"IA","new_archetype":"Destination","latitude":41.591032300000002,"longitude":-93.604665499999996}},{"type":"Feature","id":349,"geometry":{"type":"Point","coordinates":[-90.664798499999961,42.500624300000027]},"properties":{"OBJECTID":349,"NAME":"Dubuque","state":"IA","new_archetype":"Destination","latitude":42.500624299999998,"longitude":-90.664798500000003}},{"type":"Feature","id":350,"geometry":{"type":"Point","coordinates":[-91.529910599999937,41.66125610000006]},"properties":{"OBJECTID":350,"NAME":"Iowa City","state":"IA","new_archetype":"Origin","latitude":41.661256100000003,"longitude":-91.529910599999994}},{"type":"Feature","id":351,"geometry":{"type":"Point","coordinates":[-92.332874299999958,42.498275000000035]},"properties":{"OBJECTID":351,"NAME":"Waterloo","state":"IA","new_archetype":"Opportunity","latitude":42.498275,"longitude":-92.3328743}},{"type":"Feature","id":352,"geometry":{"type":"Point","coordinates":[-93.75940589999999,41.564447600000051]},"properties":{"OBJECTID":352,"NAME":"West Des Moines","state":"IA","new_archetype":"Destination","latitude":41.564447600000001,"longitude":-93.759405900000004}},{"type":"Feature","id":353,"geometry":{"type":"Point","coordinates":[-96.405878199999961,42.496681500000079]},"properties":{"OBJECTID":353,"NAME":"Sioux City","state":"IA","new_archetype":"Risk","latitude":42.496681500000001,"longitude":-96.405878200000004}},{"type":"Feature","id":354,"geometry":{"type":"Point","coordinates":[-116.20088599999997,43.616616300000032]},"properties":{"OBJECTID":354,"NAME":"Boise City","state":"ID","new_archetype":"Opportunity","latitude":43.616616299999997,"longitude":-116.200886}},{"type":"Feature","id":355,"geometry":{"type":"Point","coordinates":[-116.68941559999996,43.667873600000064]},"properties":{"OBJECTID":355,"NAME":"Caldwell","state":"ID","new_archetype":"Destination","latitude":43.6678736,"longitude":-116.6894156}},{"type":"Feature","id":356,"geometry":{"type":"Point","coordinates":[-116.39232599999997,43.608629500000063]},"properties":{"OBJECTID":356,"NAME":"Meridian","state":"ID","new_archetype":"Destination","latitude":43.608629499999999,"longitude":-116.392326}},{"type":"Feature","id":357,"geometry":{"type":"Point","coordinates":[-116.55963099999997,43.573736100000076]},"properties":{"OBJECTID":357,"NAME":"Nampa","state":"ID","new_archetype":"Opportunity","latitude":43.573736099999998,"longitude":-116.559631}},{"type":"Feature","id":358,"geometry":{"type":"Point","coordinates":[-112.45062699999994,42.862028700000053]},"properties":{"OBJECTID":358,"NAME":"Pocatello","state":"ID","new_archetype":"Destination","latitude":42.862028700000003,"longitude":-112.450627}},{"type":"Feature","id":359,"geometry":{"type":"Point","coordinates":[-114.46025539999999,42.570445600000028]},"properties":{"OBJECTID":359,"NAME":"Twin Falls","state":"ID","new_archetype":"Destination","latitude":42.570445599999999,"longitude":-114.46025539999999}},{"type":"Feature","id":360,"geometry":{"type":"Point","coordinates":[-116.78115309999998,47.674299400000052]},"properties":{"OBJECTID":360,"NAME":"Coeur d'Alene","state":"ID","new_archetype":"Destination","latitude":47.674299400000002,"longitude":-116.7811531}},{"type":"Feature","id":361,"geometry":{"type":"Point","coordinates":[-112.03627999999998,43.488790700000038]},"properties":{"OBJECTID":361,"NAME":"Idaho Falls","state":"ID","new_archetype":"Risk","latitude":43.488790700000003,"longitude":-112.03628}},{"type":"Feature","id":362,"geometry":{"type":"Point","coordinates":[-87.980216399999961,42.081156300000032]},"properties":{"OBJECTID":362,"NAME":"Arlington Heights","state":"IL","new_archetype":"Origin","latitude":42.081156300000004,"longitude":-87.980216400000003}},{"type":"Feature","id":363,"geometry":{"type":"Point","coordinates":[-88.314753899999971,41.757170100000053]},"properties":{"OBJECTID":363,"NAME":"Aurora","state":"IL","new_archetype":"Destination","latitude":41.757170100000003,"longitude":-88.314753899999999}},{"type":"Feature","id":364,"geometry":{"type":"Point","coordinates":[-87.793668499999967,41.850587400000052]},"properties":{"OBJECTID":364,"NAME":"Berwyn","state":"IL","new_archetype":"Risk","latitude":41.850587400000002,"longitude":-87.793668499999995}},{"type":"Feature","id":365,"geometry":{"type":"Point","coordinates":[-88.993914699999948,40.479782800000066]},"properties":{"OBJECTID":365,"NAME":"Bloomington","state":"IL","new_archetype":"Destination","latitude":40.479782800000002,"longitude":-88.993914700000005}},{"type":"Feature","id":366,"geometry":{"type":"Point","coordinates":[-88.071770799999967,41.700330200000053]},"properties":{"OBJECTID":366,"NAME":"Bolingbrook","state":"IL","new_archetype":"Destination","latitude":41.700330200000003,"longitude":-88.071770799999996}},{"type":"Feature","id":367,"geometry":{"type":"Point","coordinates":[-87.754019899999946,41.84553980000004]},"properties":{"OBJECTID":367,"NAME":"Cicero","state":"IL","new_archetype":"Origin","latitude":41.845539799999997,"longitude":-87.754019900000003}},{"type":"Feature","id":368,"geometry":{"type":"Point","coordinates":[-88.952415099999939,39.845416300000068]},"properties":{"OBJECTID":368,"NAME":"Decatur","state":"IL","new_archetype":"Origin","latitude":39.845416299999997,"longitude":-88.952415099999996}},{"type":"Feature","id":369,"geometry":{"type":"Point","coordinates":[-87.887391599999944,42.041582300000073]},"properties":{"OBJECTID":369,"NAME":"Des Plaines","state":"IL","new_archetype":"Risk","latitude":42.041582300000002,"longitude":-87.887391600000001}},{"type":"Feature","id":370,"geometry":{"type":"Point","coordinates":[-88.010228099999949,41.793682200000035]},"properties":{"OBJECTID":370,"NAME":"Downers Grove","state":"IL","new_archetype":"Destination","latitude":41.793682199999999,"longitude":-88.010228100000006}},{"type":"Feature","id":371,"geometry":{"type":"Point","coordinates":[-87.693045899999959,42.044738800000061]},"properties":{"OBJECTID":371,"NAME":"Evanston","state":"IL","new_archetype":"Origin","latitude":42.044738799999998,"longitude":-87.693045900000001}},{"type":"Feature","id":372,"geometry":{"type":"Point","coordinates":[-88.079278199999976,42.04272560000004]},"properties":{"OBJECTID":372,"NAME":"Hoffman Estates","state":"IL","new_archetype":"Origin","latitude":42.042725599999997,"longitude":-88.079278200000005}},{"type":"Feature","id":373,"geometry":{"type":"Point","coordinates":[-88.084021199999938,41.526360300000078]},"properties":{"OBJECTID":373,"NAME":"Joliet","state":"IL","new_archetype":"Origin","latitude":41.5263603,"longitude":-88.084021199999995}},{"type":"Feature","id":374,"geometry":{"type":"Point","coordinates":[-87.937290799999971,42.066416700000048]},"properties":{"OBJECTID":374,"NAME":"Mount Prospect","state":"IL","new_archetype":"Risk","latitude":42.066416699999998,"longitude":-87.9372908}},{"type":"Feature","id":375,"geometry":{"type":"Point","coordinates":[-88.147927799999991,41.772869900000046]},"properties":{"OBJECTID":375,"NAME":"Naperville","state":"IL","new_archetype":"Origin","latitude":41.772869900000003,"longitude":-88.147927800000005}},{"type":"Feature","id":376,"geometry":{"type":"Point","coordinates":[-87.758108099999959,41.710866200000055]},"properties":{"OBJECTID":376,"NAME":"Oak Lawn","state":"IL","new_archetype":"Origin","latitude":41.710866199999998,"longitude":-87.758108100000001}},{"type":"Feature","id":377,"geometry":{"type":"Point","coordinates":[-87.788761499999964,41.887814500000047]},"properties":{"OBJECTID":377,"NAME":"Oak Park","state":"IL","new_archetype":"Risk","latitude":41.887814499999998,"longitude":-87.788761500000007}},{"type":"Feature","id":378,"geometry":{"type":"Point","coordinates":[-87.853628799999967,41.630663000000027]},"properties":{"OBJECTID":378,"NAME":"Orland Park","state":"IL","new_archetype":"Origin","latitude":41.630662999999998,"longitude":-87.853628799999996}},{"type":"Feature","id":379,"geometry":{"type":"Point","coordinates":[-88.033688799999936,42.110577900000067]},"properties":{"OBJECTID":379,"NAME":"Palatine","state":"IL","new_archetype":"Risk","latitude":42.110577900000003,"longitude":-88.033688799999993}},{"type":"Feature","id":380,"geometry":{"type":"Point","coordinates":[-89.589100799999983,40.693860900000061]},"properties":{"OBJECTID":380,"NAME":"Peoria","state":"IL","new_archetype":"Risk","latitude":40.693860899999997,"longitude":-89.589100799999997}},{"type":"Feature","id":381,"geometry":{"type":"Point","coordinates":[-89.093965999999966,42.271394500000042]},"properties":{"OBJECTID":381,"NAME":"Rockford","state":"IL","new_archetype":"Opportunity","latitude":42.2713945,"longitude":-89.093965999999995}},{"type":"Feature","id":382,"geometry":{"type":"Point","coordinates":[-88.083405999999968,42.033360800000025]},"properties":{"OBJECTID":382,"NAME":"Schaumburg","state":"IL","new_archetype":"Risk","latitude":42.033360799999997,"longitude":-88.083405999999997}},{"type":"Feature","id":383,"geometry":{"type":"Point","coordinates":[-87.733397199999956,42.033369400000026]},"properties":{"OBJECTID":383,"NAME":"Skokie","state":"IL","new_archetype":"Risk","latitude":42.033369399999998,"longitude":-87.733397199999999}},{"type":"Feature","id":384,"geometry":{"type":"Point","coordinates":[-89.643957499999942,39.799017500000048]},"properties":{"OBJECTID":384,"NAME":"Springfield","state":"IL","new_archetype":"Destination","latitude":39.799017499999998,"longitude":-89.643957499999999}},{"type":"Feature","id":385,"geometry":{"type":"Point","coordinates":[-87.784494399999971,41.573366900000053]},"properties":{"OBJECTID":385,"NAME":"Tinley Park","state":"IL","new_archetype":"Origin","latitude":41.573366900000003,"longitude":-87.7844944}},{"type":"Feature","id":386,"geometry":{"type":"Point","coordinates":[-87.844793799999991,42.363633100000072]},"properties":{"OBJECTID":386,"NAME":"Waukegan","state":"IL","new_archetype":"Destination","latitude":42.363633100000001,"longitude":-87.844793800000005}},{"type":"Feature","id":387,"geometry":{"type":"Point","coordinates":[-88.110170899999957,41.864695900000072]},"properties":{"OBJECTID":387,"NAME":"Wheaton","state":"IL","new_archetype":"Origin","latitude":41.864695900000001,"longitude":-88.1101709}},{"type":"Feature","id":388,"geometry":{"type":"Point","coordinates":[-88.243093199999976,40.116484100000037]},"properties":{"OBJECTID":388,"NAME":"Champaign","state":"IL","new_archetype":"Risk","latitude":40.116484100000001,"longitude":-88.243093200000004}},{"type":"Feature","id":389,"geometry":{"type":"Point","coordinates":[-87.624421199999972,41.875561600000026]},"properties":{"OBJECTID":389,"NAME":"Chicago","state":"IL","new_archetype":"Destination","latitude":41.875561599999997,"longitude":-87.6244212}},{"type":"Feature","id":390,"geometry":{"type":"Point","coordinates":[-88.28109939999996,42.03726000000006]},